{
"type": "FeatureCollection",
"name": "Park_points",
"crs": { "type": "name", "properties": { "name": "urn:ogc:def:crs:OGC:1.3:CRS84" } },
"features": [
{ "type": "Feature", "properties": { "OBJECTID": 98, "KC_Fac_FID": 2761, "KCParkFID": 3230201, "SiteName": "Arroyo Heights Park", "SiteType": "Park Site", "Owner": "City of Seattle", "OwnerType": "City", "Manager": "City of Seattle", "ManageType": "City", "Maintd_By": "City of Seattle", "MaintType": "City", "Label_Type": 0 }, "geometry": { "type": "Point", "coordinates": [ -122.385680421638313, 47.504065092457019 ] } },
{ "type": "Feature", "properties": { "OBJECTID": 100, "KC_Fac_FID": 7211, "KCParkFID": 3230202, "SiteName": "Endolyne Park", "SiteType": "Park Site", "Owner": "City of Seattle", "OwnerType": "City", "Manager": "City of Seattle", "ManageType": "City", "Maintd_By": "City of Seattle", "MaintType": "City", "Label_Type": 1 }, "geometry": { "type": "Point", "coordinates": [ -122.394382040939831, 47.514546620291533 ] } },
{ "type": "Feature", "properties": { "OBJECTID": 101, "KC_Fac_FID": 7212, "KCParkFID": 3230203, "SiteName": "Arroyos Natural Area", "SiteType": "Park Site", "Owner": "City of Seattle", "OwnerType": "City", "Manager": "City of Seattle", "ManageType": "City", "Maintd_By": "City of Seattle", "MaintType": "City", "Label_Type": 0 }, "geometry": { "type": "Point", "coordinates": [ -122.390025123203841, 47.506134972163643 ] } },
{ "type": "Feature", "properties": { "OBJECTID": 110, "KC_Fac_FID": 2802, "KCParkFID": 3231203, "SiteName": "Seola Park", "SiteType": "Park Site", "Owner": "City of Seattle", "OwnerType": "City", "Manager": "City of Seattle", "ManageType": "City", "Maintd_By": "City of Seattle", "MaintType": "City", "Label_Type": 0 }, "geometry": { "type": "Point", "coordinates": [ -122.376573276618117, 47.498296090177931 ] } },
{ "type": "Feature", "properties": { "OBJECTID": 111, "KC_Fac_FID": 2802, "KCParkFID": 3231203, "SiteName": "Seola Park", "SiteType": "Park Site", "Owner": "City of Seattle", "OwnerType": "City", "Manager": "City of Seattle", "ManageType": "City", "Maintd_By": "City of Seattle", "MaintType": "City", "Label_Type": 1 }, "geometry": { "type": "Point", "coordinates": [ -122.37270370789939, 47.502314984661545 ] } },
{ "type": "Feature", "properties": { "OBJECTID": 137, "KC_Fac_FID": 7050, "KCParkFID": 3240201, "SiteName": "Don Armeni Boat Ramp", "SiteType": "Park Site", "Owner": "City of Seattle", "OwnerType": "City", "Manager": "City of Seattle", "ManageType": "City", "Maintd_By": "City of Seattle", "MaintType": "City", "Label_Type": 1 }, "geometry": { "type": "Point", "coordinates": [ -122.38241578620287, 47.59285796065933 ] } },
{ "type": "Feature", "properties": { "OBJECTID": 138, "KC_Fac_FID": 7051, "KCParkFID": 3240202, "SiteName": "Hamilton Viewpoint Park", "SiteType": "Park Site", "Owner": "City of Seattle", "OwnerType": "City", "Manager": "City of Seattle", "ManageType": "City", "Maintd_By": "City of Seattle", "MaintType": "City", "Label_Type": 0 }, "geometry": { "type": "Point", "coordinates": [ -122.386471158226215, 47.594454983163118 ] } },
{ "type": "Feature", "properties": { "OBJECTID": 140, "KC_Fac_FID": 2466, "KCParkFID": 3241001, "SiteName": "Alki Beach Park", "SiteType": "Park Site", "Owner": "City of Seattle", "OwnerType": "City", "Manager": "City of Seattle", "ManageType": "City", "Maintd_By": "City of Seattle", "MaintType": "City", "Label_Type": 1 }, "geometry": { "type": "Point", "coordinates": [ -122.407916862947985, 47.581360606748888 ] } },
{ "type": "Feature", "properties": { "OBJECTID": 141, "KC_Fac_FID": 7184, "KCParkFID": 3241002, "SiteName": "Schmitz Boulevard", "SiteType": "Park Site", "Owner": "City of Seattle", "OwnerType": "City", "Manager": "City of Seattle", "ManageType": "City", "Maintd_By": "City of Seattle", "MaintType": "City", "Label_Type": 0 }, "geometry": { "type": "Point", "coordinates": [ -122.402978056429035, 47.576910977258692 ] } },
{ "type": "Feature", "properties": { "OBJECTID": 143, "KC_Fac_FID": 7185, "KCParkFID": 3241003, "SiteName": "Alki Playground", "SiteType": "Park Site", "Owner": "City of Seattle", "OwnerType": "City", "Manager": "City of Seattle", "ManageType": "City", "Maintd_By": "City of Seattle", "MaintType": "City", "Label_Type": 1 }, "geometry": { "type": "Point", "coordinates": [ -122.407312538662069, 47.57849685043039 ] } },
{ "type": "Feature", "properties": { "OBJECTID": 144, "KC_Fac_FID": 7052, "KCParkFID": 3241101, "SiteName": "Seacrest Park", "SiteType": "Park Site", "Owner": "City of Seattle", "OwnerType": "City", "Manager": "City of Seattle", "ManageType": "City", "Maintd_By": "City of Seattle", "MaintType": "City", "Label_Type": 0 }, "geometry": { "type": "Point", "coordinates": [ -122.377352997532441, 47.587081760362345 ] } },
{ "type": "Feature", "properties": { "OBJECTID": 146, "KC_Fac_FID": 7053, "KCParkFID": 3241102, "SiteName": "Hiawatha Playfield", "SiteType": "Park Site", "Owner": "City of Seattle", "OwnerType": "City", "Manager": "City of Seattle", "ManageType": "City", "Maintd_By": "City of Seattle", "MaintType": "City", "Label_Type": 1 }, "geometry": { "type": "Point", "coordinates": [ -122.384964601533525, 47.578272845147289 ] } },
{ "type": "Feature", "properties": { "OBJECTID": 147, "KC_Fac_FID": 7054, "KCParkFID": 3241103, "SiteName": "Belvedere Park", "SiteType": "Park Site", "Owner": "City of Seattle", "OwnerType": "City", "Manager": "City of Seattle", "ManageType": "City", "Maintd_By": "City of Seattle", "MaintType": "City", "Label_Type": 0 }, "geometry": { "type": "Point", "coordinates": [ -122.377590901816845, 47.580590316533382 ] } },
{ "type": "Feature", "properties": { "OBJECTID": 149, "KC_Fac_FID": 7181, "KCParkFID": 3241104, "SiteName": "California Place", "SiteType": "Park Site", "Owner": "City of Seattle", "OwnerType": "City", "Manager": "City of Seattle", "ManageType": "City", "Maintd_By": "City of Seattle", "MaintType": "City", "Label_Type": 1 }, "geometry": { "type": "Point", "coordinates": [ -122.386695045481474, 47.585640434337108 ] } },
{ "type": "Feature", "properties": { "OBJECTID": 150, "KC_Fac_FID": 7182, "KCParkFID": 3241105, "SiteName": "College Street Ravine", "SiteType": "Park Site", "Owner": "City of Seattle", "OwnerType": "City", "Manager": "City of Seattle", "ManageType": "City", "Maintd_By": "City of Seattle", "MaintType": "City", "Label_Type": 0 }, "geometry": { "type": "Point", "coordinates": [ -122.396191392948111, 47.583318725480844 ] } },
{ "type": "Feature", "properties": { "OBJECTID": 152, "KC_Fac_FID": 7183, "KCParkFID": 3241106, "SiteName": "Nantes Park", "SiteType": "Park Site", "Owner": "City of Seattle", "OwnerType": "City", "Manager": "City of Seattle", "ManageType": "City", "Maintd_By": "City of Seattle", "MaintType": "City", "Label_Type": 1 }, "geometry": { "type": "Point", "coordinates": [ -122.397063010137728, 47.57956560078788 ] } },
{ "type": "Feature", "properties": { "OBJECTID": 154, "KC_Fac_FID": 7192, "KCParkFID": 3241301, "SiteName": "Longfellow Creek GS: North", "SiteType": "Park Site", "Owner": "City of Seattle", "OwnerType": "City", "Manager": "City of Seattle", "ManageType": "City", "Maintd_By": "City of Seattle", "MaintType": "City", "Label_Type": 0 }, "geometry": { "type": "Point", "coordinates": [ -122.367176994505968, 47.565817312778123 ] } },
{ "type": "Feature", "properties": { "OBJECTID": 156, "KC_Fac_FID": 7193, "KCParkFID": 3241302, "SiteName": "Pigeon Point Park", "SiteType": "Park Site", "Owner": "City of Seattle", "OwnerType": "City", "Manager": "City of Seattle", "ManageType": "City", "Maintd_By": "City of Seattle", "MaintType": "City", "Label_Type": 0 }, "geometry": { "type": "Point", "coordinates": [ -122.357632147538339, 47.560512259204522 ] } },
{ "type": "Feature", "properties": { "OBJECTID": 158, "KC_Fac_FID": 7194, "KCParkFID": 3241303, "SiteName": "Delridge Playfield", "SiteType": "Park Site", "Owner": "City of Seattle", "OwnerType": "City", "Manager": "City of Seattle", "ManageType": "City", "Maintd_By": "City of Seattle", "MaintType": "City", "Label_Type": 1 }, "geometry": { "type": "Point", "coordinates": [ -122.364369259358725, 47.562841911348009 ] } },
{ "type": "Feature", "properties": { "OBJECTID": 163, "KC_Fac_FID": 8234, "KCParkFID": 3241305, "SiteName": "West Duwamish Greenbelt", "SiteType": "Park Site", "Owner": "City of Seattle", "OwnerType": "City", "Manager": "City of Seattle", "ManageType": "City", "Maintd_By": "City of Seattle", "MaintType": "City", "Label_Type": 0 }, "geometry": { "type": "Point", "coordinates": [ -122.355311559598093, 47.562715054571299 ] } },
{ "type": "Feature", "properties": { "OBJECTID": 165, "KC_Fac_FID": 7061, "KCParkFID": 3241401, "SiteName": "Dakota Place Park", "SiteType": "Park Site", "Owner": "City of Seattle", "OwnerType": "City", "Manager": "City of Seattle", "ManageType": "City", "Maintd_By": "City of Seattle", "MaintType": "City", "Label_Type": 1 }, "geometry": { "type": "Point", "coordinates": [ -122.387166281636723, 47.566842796296683 ] } },
{ "type": "Feature", "properties": { "OBJECTID": 166, "KC_Fac_FID": 7062, "KCParkFID": 3241402, "SiteName": "Junction Plaza Park", "SiteType": "Park Site", "Owner": "City of Seattle", "OwnerType": "City", "Manager": "City of Seattle", "ManageType": "City", "Maintd_By": "City of Seattle", "MaintType": "City", "Label_Type": 1 }, "geometry": { "type": "Point", "coordinates": [ -122.385854079642272, 47.561266124636099 ] } },
{ "type": "Feature", "properties": { "OBJECTID": 167, "KC_Fac_FID": 7232, "KCParkFID": 3241403, "SiteName": "Fauntleroy Place", "SiteType": "Park Site", "Owner": "City of Seattle", "OwnerType": "City", "Manager": "City of Seattle", "ManageType": "City", "Maintd_By": "City of Seattle", "MaintType": "City", "Label_Type": 1 }, "geometry": { "type": "Point", "coordinates": [ -122.379833152617593, 47.56271531937611 ] } },
{ "type": "Feature", "properties": { "OBJECTID": 168, "KC_Fac_FID": 7847, "KCParkFID": 3241404, "SiteName": "Ercolini Park", "SiteType": "Park Site", "Owner": "City of Seattle", "OwnerType": "City", "Manager": "City of Seattle", "ManageType": "City", "Maintd_By": "City of Seattle", "MaintType": "City", "Label_Type": 1 }, "geometry": { "type": "Point", "coordinates": [ -122.393083848611937, 47.561513932562235 ] } },
{ "type": "Feature", "properties": { "OBJECTID": 169, "KC_Fac_FID": 2476, "KCParkFID": 3241501, "SiteName": "Schmitz Park", "SiteType": "Park Site", "Owner": "City of Seattle", "OwnerType": "City", "Manager": "City of Seattle", "ManageType": "City", "Maintd_By": "City of Seattle", "MaintType": "City", "Label_Type": 0 }, "geometry": { "type": "Point", "coordinates": [ -122.399097390762876, 47.571575374175495 ] } },
{ "type": "Feature", "properties": { "OBJECTID": 171, "KC_Fac_FID": 2487, "KCParkFID": 3241502, "SiteName": "Mee Kwa Mooks Park", "SiteType": "Park Site", "Owner": "City of Seattle", "OwnerType": "City", "Manager": "City of Seattle", "ManageType": "City", "Maintd_By": "City of Seattle", "MaintType": "City", "Label_Type": 1 }, "geometry": { "type": "Point", "coordinates": [ -122.404006531379366, 47.563167088129035 ] } },
{ "type": "Feature", "properties": { "OBJECTID": 172, "KC_Fac_FID": 7058, "KCParkFID": 3241503, "SiteName": "Cormorant Cove", "SiteType": "Park Site", "Owner": "City of Seattle", "OwnerType": "City", "Manager": "City of Seattle", "ManageType": "City", "Maintd_By": "City of Seattle", "MaintType": "City", "Label_Type": 1 }, "geometry": { "type": "Point", "coordinates": [ -122.412090555121964, 47.570982641831151 ] } },
{ "type": "Feature", "properties": { "OBJECTID": 173, "KC_Fac_FID": 7059, "KCParkFID": 3241504, "SiteName": "Andover Place", "SiteType": "Park Site", "Owner": "City of Seattle", "OwnerType": "City", "Manager": "City of Seattle", "ManageType": "City", "Maintd_By": "City of Seattle", "MaintType": "City", "Label_Type": 1 }, "geometry": { "type": "Point", "coordinates": [ -122.409994439425219, 47.568517091276625 ] } },
{ "type": "Feature", "properties": { "OBJECTID": 174, "KC_Fac_FID": 7060, "KCParkFID": 3241505, "SiteName": "Emma Schmitz Memorial Overlook", "SiteType": "Park Site", "Owner": "City of Seattle", "OwnerType": "City", "Manager": "City of Seattle", "ManageType": "City", "Maintd_By": "City of Seattle", "MaintType": "City", "Label_Type": 1 }, "geometry": { "type": "Point", "coordinates": [ -122.407108467720846, 47.562883754724496 ] } },
{ "type": "Feature", "properties": { "OBJECTID": 175, "KC_Fac_FID": 7186, "KCParkFID": 3241506, "SiteName": "Bar-S Playground", "SiteType": "Park Site", "Owner": "City of Seattle", "OwnerType": "City", "Manager": "City of Seattle", "ManageType": "City", "Maintd_By": "City of Seattle", "MaintType": "City", "Label_Type": 1 }, "geometry": { "type": "Point", "coordinates": [ -122.416055753081224, 47.575196062562149 ] } },
{ "type": "Feature", "properties": { "OBJECTID": 176, "KC_Fac_FID": 7187, "KCParkFID": 3241507, "SiteName": "Charles Richey Sr Viewpoint", "SiteType": "Park Site", "Owner": "City of Seattle", "OwnerType": "City", "Manager": "City of Seattle", "ManageType": "City", "Maintd_By": "City of Seattle", "MaintType": "City", "Label_Type": 1 }, "geometry": { "type": "Point", "coordinates": [ -122.419041258823199, 47.574315352278688 ] } },
{ "type": "Feature", "properties": { "OBJECTID": 177, "KC_Fac_FID": 7188, "KCParkFID": 3241508, "SiteName": "Me-Kwa-Mooks Natural Area", "SiteType": "Park Site", "Owner": "City of Seattle", "OwnerType": "City", "Manager": "City of Seattle", "ManageType": "City", "Maintd_By": "City of Seattle", "MaintType": "City", "Label_Type": 0 }, "geometry": { "type": "Point", "coordinates": [ -122.39993392342852, 47.559683583174959 ] } },
{ "type": "Feature", "properties": { "OBJECTID": 180, "KC_Fac_FID": 7857, "KCParkFID": 3241509, "SiteName": "Weather Watch Park", "SiteType": "Park Site", "Owner": "City of Seattle", "OwnerType": "City", "Manager": "City of Seattle", "ManageType": "City", "Maintd_By": "City of Seattle", "MaintType": "City", "Label_Type": 1 }, "geometry": { "type": "Point", "coordinates": [ -122.410009278430849, 47.567516648035401 ] } },
{ "type": "Feature", "properties": { "OBJECTID": 181, "KC_Fac_FID": 7189, "KCParkFID": 3242301, "SiteName": "Fairmount Playground", "SiteType": "Park Site", "Owner": "City of Seattle", "OwnerType": "City", "Manager": "City of Seattle", "ManageType": "City", "Maintd_By": "City of Seattle", "MaintType": "City", "Label_Type": 1 }, "geometry": { "type": "Point", "coordinates": [ -122.380550010565599, 47.554039142956817 ] } },
{ "type": "Feature", "properties": { "OBJECTID": 182, "KC_Fac_FID": 2474, "KCParkFID": 3242401, "SiteName": "West Seattle Golf Course", "SiteType": "Park Site", "Owner": "City of Seattle", "OwnerType": "City", "Manager": "City of Seattle", "ManageType": "City", "Maintd_By": "City of Seattle", "MaintType": "City", "Label_Type": 0 }, "geometry": { "type": "Point", "coordinates": [ -122.368360895063176, 47.554657185278714 ] } },
{ "type": "Feature", "properties": { "OBJECTID": 184, "KC_Fac_FID": 7069, "KCParkFID": 3242402, "SiteName": "Puget Boulevard Commons", "SiteType": "Park Site", "Owner": "City of Seattle", "OwnerType": "City", "Manager": "City of Seattle", "ManageType": "City", "Maintd_By": "City of Seattle", "MaintType": "City", "Label_Type": 1 }, "geometry": { "type": "Point", "coordinates": [ -122.364759989925545, 47.555098643440665 ] } },
{ "type": "Feature", "properties": { "OBJECTID": 185, "KC_Fac_FID": 7070, "KCParkFID": 3242403, "SiteName": "Greg Davis Park", "SiteType": "Park Site", "Owner": "City of Seattle", "OwnerType": "City", "Manager": "City of Seattle", "ManageType": "City", "Maintd_By": "City of Seattle", "MaintType": "City", "Label_Type": 0 }, "geometry": { "type": "Point", "coordinates": [ -122.365966827395553, 47.554698113891604 ] } },
{ "type": "Feature", "properties": { "OBJECTID": 187, "KC_Fac_FID": 7071, "KCParkFID": 3242404, "SiteName": "Cottage Grove Park", "SiteType": "Park Site", "Owner": "City of Seattle", "OwnerType": "City", "Manager": "City of Seattle", "ManageType": "City", "Maintd_By": "City of Seattle", "MaintType": "City", "Label_Type": 0 }, "geometry": { "type": "Point", "coordinates": [ -122.365203632783022, 47.554693828149489 ] } },
{ "type": "Feature", "properties": { "OBJECTID": 189, "KC_Fac_FID": 7190, "KCParkFID": 3242405, "SiteName": "Puget Creek Greenspace", "SiteType": "Park Site", "Owner": "City of Seattle", "OwnerType": "City", "Manager": "City of Seattle", "ManageType": "City", "Maintd_By": "City of Seattle", "MaintType": "City", "Label_Type": 0 }, "geometry": { "type": "Point", "coordinates": [ -122.358797185563574, 47.551108262077847 ] } },
{ "type": "Feature", "properties": { "OBJECTID": 192, "KC_Fac_FID": 7191, "KCParkFID": 3242406, "SiteName": "Puget Ridge Playground", "SiteType": "Park Site", "Owner": "City of Seattle", "OwnerType": "City", "Manager": "City of Seattle", "ManageType": "City", "Maintd_By": "City of Seattle", "MaintType": "City", "Label_Type": 1 }, "geometry": { "type": "Point", "coordinates": [ -122.359947552794154, 47.547366964962762 ] } },
{ "type": "Feature", "properties": { "OBJECTID": 193, "KC_Fac_FID": 7195, "KCParkFID": 3242407, "SiteName": "West Duwamish GS: Puget Park", "SiteType": "Park Site", "Owner": "City of Seattle", "OwnerType": "City", "Manager": "City of Seattle", "ManageType": "City", "Maintd_By": "City of Seattle", "MaintType": "City", "Label_Type": 0 }, "geometry": { "type": "Point", "coordinates": [ -122.348990819702934, 47.547931392267188 ] } },
{ "type": "Feature", "properties": { "OBJECTID": 196, "KC_Fac_FID": 7196, "KCParkFID": 3242408, "SiteName": "Puget Park", "SiteType": "Park Site", "Owner": "City of Seattle", "OwnerType": "City", "Manager": "City of Seattle", "ManageType": "City", "Maintd_By": "City of Seattle", "MaintType": "City", "Label_Type": 1 }, "geometry": { "type": "Point", "coordinates": [ -122.356653824397654, 47.559012312163162 ] } },
{ "type": "Feature", "properties": { "OBJECTID": 197, "KC_Fac_FID": 7222, "KCParkFID": 3242409, "SiteName": "Camp Long", "SiteType": "Park Site", "Owner": "City of Seattle", "OwnerType": "City", "Manager": "City of Seattle", "ManageType": "City", "Maintd_By": "City of Seattle", "MaintType": "City", "Label_Type": 1 }, "geometry": { "type": "Point", "coordinates": [ -122.373160351006831, 47.5562421359692 ] } },
{ "type": "Feature", "properties": { "OBJECTID": 198, "KC_Fac_FID": 7223, "KCParkFID": 3242410, "SiteName": "Rotary Viewpoint", "SiteType": "Park Site", "Owner": "City of Seattle", "OwnerType": "City", "Manager": "City of Seattle", "ManageType": "City", "Maintd_By": "City of Seattle", "MaintType": "City", "Label_Type": 0 }, "geometry": { "type": "Point", "coordinates": [ -122.375881512093869, 47.561491735426891 ] } },
{ "type": "Feature", "properties": { "OBJECTID": 200, "KC_Fac_FID": 2473, "KCParkFID": 3242501, "SiteName": "Walt Hundley Playfield", "SiteType": "Park Site", "Owner": "City of Seattle", "OwnerType": "City", "Manager": "City of Seattle", "ManageType": "City", "Maintd_By": "City of Seattle", "MaintType": "City", "Label_Type": 1 }, "geometry": { "type": "Point", "coordinates": [ -122.373480164069022, 47.539940038936876 ] } },
{ "type": "Feature", "properties": { "OBJECTID": 201, "KC_Fac_FID": 7206, "KCParkFID": 3242503, "SiteName": "E.C. Hughes Playground", "SiteType": "Park Site", "Owner": "City of Seattle", "OwnerType": "City", "Manager": "City of Seattle", "ManageType": "City", "Maintd_By": "City of Seattle", "MaintType": "City", "Label_Type": 1 }, "geometry": { "type": "Point", "coordinates": [ -122.369543584453197, 47.532804934592455 ] } },
{ "type": "Feature", "properties": { "OBJECTID": 202, "KC_Fac_FID": 7072, "KCParkFID": 3242601, "SiteName": "Lowman Beach Park", "SiteType": "Park Site", "Owner": "City of Seattle", "OwnerType": "City", "Manager": "City of Seattle", "ManageType": "City", "Maintd_By": "City of Seattle", "MaintType": "City", "Label_Type": 1 }, "geometry": { "type": "Point", "coordinates": [ -122.397754963672114, 47.540172267538402 ] } },
{ "type": "Feature", "properties": { "OBJECTID": 203, "KC_Fac_FID": 7073, "KCParkFID": 3242602, "SiteName": "Solstice Park", "SiteType": "Park Site", "Owner": "City of Seattle", "OwnerType": "City", "Manager": "City of Seattle", "ManageType": "City", "Maintd_By": "City of Seattle", "MaintType": "City", "Label_Type": 1 }, "geometry": { "type": "Point", "coordinates": [ -122.390399431833416, 47.536406932083494 ] } },
{ "type": "Feature", "properties": { "OBJECTID": 204, "KC_Fac_FID": 7207, "KCParkFID": 3242603, "SiteName": "Orchard Street Ravine", "SiteType": "Park Site", "Owner": "City of Seattle", "OwnerType": "City", "Manager": "City of Seattle", "ManageType": "City", "Maintd_By": "City of Seattle", "MaintType": "City", "Label_Type": 0 }, "geometry": { "type": "Point", "coordinates": [ -122.379630201558882, 47.538356982391733 ] } },
{ "type": "Feature", "properties": { "OBJECTID": 206, "KC_Fac_FID": 7208, "KCParkFID": 3242604, "SiteName": "Pelly Place Natural Area", "SiteType": "Park Site", "Owner": "City of Seattle", "OwnerType": "City", "Manager": "City of Seattle", "ManageType": "City", "Maintd_By": "City of Seattle", "MaintType": "City", "Label_Type": 1 }, "geometry": { "type": "Point", "coordinates": [ -122.392723918206954, 47.541472239483525 ] } },
{ "type": "Feature", "properties": { "OBJECTID": 207, "KC_Fac_FID": 7852, "KCParkFID": 3242605, "SiteName": "Morgan Junction Park", "SiteType": "Park Site", "Owner": "City of Seattle", "OwnerType": "City", "Manager": "City of Seattle", "ManageType": "City", "Maintd_By": "City of Seattle", "MaintType": "City", "Label_Type": 1 }, "geometry": { "type": "Point", "coordinates": [ -122.387551144416264, 47.545710109220359 ] } },
{ "type": "Feature", "properties": { "OBJECTID": 208, "KC_Fac_FID": 2472, "KCParkFID": 3243501, "SiteName": "Lincoln Park", "SiteType": "Park Site", "Owner": "City of Seattle", "OwnerType": "City", "Manager": "City of Seattle", "ManageType": "City", "Maintd_By": "City of Seattle", "MaintType": "City", "Label_Type": 1 }, "geometry": { "type": "Point", "coordinates": [ -122.396013337822595, 47.531176596813808 ] } },
{ "type": "Feature", "properties": { "OBJECTID": 209, "KC_Fac_FID": 2471, "KCParkFID": 3243502, "SiteName": "Fauntleroy Park", "SiteType": "Park Site", "Owner": "City of Seattle", "OwnerType": "City", "Manager": "City of Seattle", "ManageType": "City", "Maintd_By": "City of Seattle", "MaintType": "City", "Label_Type": 0 }, "geometry": { "type": "Point", "coordinates": [ -122.381212201774801, 47.518356402102164 ] } },
{ "type": "Feature", "properties": { "OBJECTID": 211, "KC_Fac_FID": 7074, "KCParkFID": 3243504, "SiteName": "Kilbourne Park", "SiteType": "Park Site", "Owner": "City of Seattle", "OwnerType": "City", "Manager": "City of Seattle", "ManageType": "City", "Maintd_By": "City of Seattle", "MaintType": "City", "Label_Type": 0 }, "geometry": { "type": "Point", "coordinates": [ -122.387985486684627, 47.521231849909633 ] } },
{ "type": "Feature", "properties": { "OBJECTID": 213, "KC_Fac_FID": 7209, "KCParkFID": 3243505, "SiteName": "Fauntleroy Creek Ravine", "SiteType": "Park Site", "Owner": "City of Seattle", "OwnerType": "City", "Manager": "City of Seattle", "ManageType": "City", "Maintd_By": "City of Seattle", "MaintType": "City", "Label_Type": 1 }, "geometry": { "type": "Point", "coordinates": [ -122.392350332313327, 47.522399034951974 ] } },
{ "type": "Feature", "properties": { "OBJECTID": 214, "KC_Fac_FID": 7210, "KCParkFID": 3243506, "SiteName": "Katharine Colman Triangle", "SiteType": "Park Site", "Owner": "City of Seattle", "OwnerType": "City", "Manager": "City of Seattle", "ManageType": "City", "Maintd_By": "City of Seattle", "MaintType": "City", "Label_Type": 1 }, "geometry": { "type": "Point", "coordinates": [ -122.387787818832706, 47.520874859678749 ] } },
{ "type": "Feature", "properties": { "OBJECTID": 215, "KC_Fac_FID": 2776, "KCParkFID": 3243602, "SiteName": "Roxhill Playground", "SiteType": "Park Site", "Owner": "City of Seattle", "OwnerType": "City", "Manager": "City of Seattle", "ManageType": "City", "Maintd_By": "City of Seattle", "MaintType": "City", "Label_Type": 1 }, "geometry": { "type": "Point", "coordinates": [ -122.368870056563068, 47.519473546587548 ] } },
{ "type": "Feature", "properties": { "OBJECTID": 216, "KC_Fac_FID": 2470, "KCParkFID": 3250101, "SiteName": "Ballard High School Playground", "SiteType": "Park Site", "Owner": "City of Seattle", "OwnerType": "City", "Manager": "City of Seattle", "ManageType": "City", "Maintd_By": "City of Seattle", "MaintType": "City", "Label_Type": 1 }, "geometry": { "type": "Point", "coordinates": [ -122.37440579938449, 47.67686732765258 ] } },
{ "type": "Feature", "properties": { "OBJECTID": 217, "KC_Fac_FID": 7000, "KCParkFID": 3250103, "SiteName": "Baker Park on Crown Hill", "SiteType": "Park Site", "Owner": "City of Seattle", "OwnerType": "City", "Manager": "City of Seattle", "ManageType": "City", "Maintd_By": "City of Seattle", "MaintType": "City", "Label_Type": 1 }, "geometry": { "type": "Point", "coordinates": [ -122.374794227874276, 47.69011786732046 ] } },
{ "type": "Feature", "properties": { "OBJECTID": 218, "KC_Fac_FID": 7001, "KCParkFID": 3250104, "SiteName": "6th Avenue NW Pocket Park", "SiteType": "Park Site", "Owner": "City of Seattle", "OwnerType": "City", "Manager": "City of Seattle", "ManageType": "City", "Maintd_By": "City of Seattle", "MaintType": "City", "Label_Type": 1 }, "geometry": { "type": "Point", "coordinates": [ -122.363629973623333, 47.684225321008583 ] } },
{ "type": "Feature", "properties": { "OBJECTID": 219, "KC_Fac_FID": 7851, "KCParkFID": 3250105, "SiteName": "Kirke Park", "SiteType": "Park Site", "Owner": "City of Seattle", "OwnerType": "City", "Manager": "City of Seattle", "ManageType": "City", "Maintd_By": "City of Seattle", "MaintType": "City", "Label_Type": 1 }, "geometry": { "type": "Point", "coordinates": [ -122.368004089184907, 47.680481091251593 ] } },
{ "type": "Feature", "properties": { "OBJECTID": 220, "KC_Fac_FID": 2469, "KCParkFID": 3250201, "SiteName": "Loyal Heights Playfield", "SiteType": "Park Site", "Owner": "City of Seattle", "OwnerType": "City", "Manager": "City of Seattle", "ManageType": "City", "Maintd_By": "City of Seattle", "MaintType": "City", "Label_Type": 1 }, "geometry": { "type": "Point", "coordinates": [ -122.383240958858778, 47.684105400467104 ] } },
{ "type": "Feature", "properties": { "OBJECTID": 221, "KC_Fac_FID": 2468, "KCParkFID": 3250202, "SiteName": "Salmon Bay Park", "SiteType": "Park Site", "Owner": "City of Seattle", "OwnerType": "City", "Manager": "City of Seattle", "ManageType": "City", "Maintd_By": "City of Seattle", "MaintType": "City", "Label_Type": 1 }, "geometry": { "type": "Point", "coordinates": [ -122.382143720060824, 47.679517232075412 ] } },
{ "type": "Feature", "properties": { "OBJECTID": 222, "KC_Fac_FID": 7006, "KCParkFID": 3250203, "SiteName": "Webster Park", "SiteType": "Park Site", "Owner": "City of Seattle", "OwnerType": "City", "Manager": "City of Seattle", "ManageType": "City", "Maintd_By": "City of Seattle", "MaintType": "City", "Label_Type": 1 }, "geometry": { "type": "Point", "coordinates": [ -122.397528981512096, 47.677673070509435 ] } },
{ "type": "Feature", "properties": { "OBJECTID": 223, "KC_Fac_FID": 2442, "KCParkFID": 3250301, "SiteName": "Sunset Hill Viewpoint Park", "SiteType": "Park Site", "Owner": "City of Seattle", "OwnerType": "City", "Manager": "City of Seattle", "ManageType": "City", "Maintd_By": "City of Seattle", "MaintType": "City", "Label_Type": 1 }, "geometry": { "type": "Point", "coordinates": [ -122.40094009248314, 47.684033271731536 ] } },
{ "type": "Feature", "properties": { "OBJECTID": 224, "KC_Fac_FID": 2477, "KCParkFID": 3251001, "SiteName": "Discovery Park", "SiteType": "Park Site", "Owner": "City of Seattle", "OwnerType": "City", "Manager": "City of Seattle", "ManageType": "City", "Maintd_By": "City of Seattle", "MaintType": "City", "Label_Type": 0 }, "geometry": { "type": "Point", "coordinates": [ -122.42378163664219, 47.660244272588827 ] } },
{ "type": "Feature", "properties": { "OBJECTID": 226, "KC_Fac_FID": 6974, "KCParkFID": 3251002, "SiteName": "Commodore Park", "SiteType": "Park Site", "Owner": "City of Seattle", "OwnerType": "City", "Manager": "City of Seattle", "ManageType": "City", "Maintd_By": "City of Seattle", "MaintType": "City", "Label_Type": 1 }, "geometry": { "type": "Point", "coordinates": [ -122.400105557688818, 47.665364367078936 ] } },
{ "type": "Feature", "properties": { "OBJECTID": 227, "KC_Fac_FID": 7109, "KCParkFID": 3251003, "SiteName": "Northwest 60th Viewpoint", "SiteType": "Park Site", "Owner": "City of Seattle", "OwnerType": "City", "Manager": "City of Seattle", "ManageType": "City", "Maintd_By": "City of Seattle", "MaintType": "City", "Label_Type": 1 }, "geometry": { "type": "Point", "coordinates": [ -122.406574086932196, 47.67218998118998 ] } },
{ "type": "Feature", "properties": { "OBJECTID": 228, "KC_Fac_FID": 6969, "KCParkFID": 3251101, "SiteName": "Thyme Patch Park", "SiteType": "Park Site", "Owner": "City of Seattle", "OwnerType": "City", "Manager": "City of Seattle", "ManageType": "City", "Maintd_By": "City of Seattle", "MaintType": "City", "Label_Type": 1 }, "geometry": { "type": "Point", "coordinates": [ -122.395216041501712, 47.670710481780503 ] } },
{ "type": "Feature", "properties": { "OBJECTID": 229, "KC_Fac_FID": 6970, "KCParkFID": 3251102, "SiteName": "Ballard Corners Park", "SiteType": "Park Site", "Owner": "City of Seattle", "OwnerType": "City", "Manager": "City of Seattle", "ManageType": "City", "Maintd_By": "City of Seattle", "MaintType": "City", "Label_Type": 1 }, "geometry": { "type": "Point", "coordinates": [ -122.379117173388792, 47.674186656495948 ] } },
{ "type": "Feature", "properties": { "OBJECTID": 230, "KC_Fac_FID": 6971, "KCParkFID": 3251103, "SiteName": "Ballard Playground", "SiteType": "Park Site", "Owner": "City of Seattle", "OwnerType": "City", "Manager": "City of Seattle", "ManageType": "City", "Maintd_By": "City of Seattle", "MaintType": "City", "Label_Type": 1 }, "geometry": { "type": "Point", "coordinates": [ -122.391549436411097, 47.672785893968403 ] } },
{ "type": "Feature", "properties": { "OBJECTID": 231, "KC_Fac_FID": 6972, "KCParkFID": 3251104, "SiteName": "Bergen Place", "SiteType": "Park Site", "Owner": "City of Seattle", "OwnerType": "City", "Manager": "City of Seattle", "ManageType": "City", "Maintd_By": "City of Seattle", "MaintType": "City", "Label_Type": 1 }, "geometry": { "type": "Point", "coordinates": [ -122.384494581492319, 47.668330829516378 ] } },
{ "type": "Feature", "properties": { "OBJECTID": 232, "KC_Fac_FID": 6973, "KCParkFID": 3251105, "SiteName": "Marvins Garden", "SiteType": "Park Site", "Owner": "City of Seattle", "OwnerType": "City", "Manager": "City of Seattle", "ManageType": "City", "Maintd_By": "City of Seattle", "MaintType": "City", "Label_Type": 1 }, "geometry": { "type": "Point", "coordinates": [ -122.384971719393889, 47.667976603359861 ] } },
{ "type": "Feature", "properties": { "OBJECTID": 233, "KC_Fac_FID": 7107, "KCParkFID": 3251106, "SiteName": "Ballard Commons Park", "SiteType": "Park Site", "Owner": "City of Seattle", "OwnerType": "City", "Manager": "City of Seattle", "ManageType": "City", "Maintd_By": "City of Seattle", "MaintType": "City", "Label_Type": 1 }, "geometry": { "type": "Point", "coordinates": [ -122.385485604715043, 47.670548707186043 ] } },
{ "type": "Feature", "properties": { "OBJECTID": 235, "KC_Fac_FID": 2445, "KCParkFID": 3251201, "SiteName": "Gilman Playground", "SiteType": "Park Site", "Owner": "City of Seattle", "OwnerType": "City", "Manager": "City of Seattle", "ManageType": "City", "Maintd_By": "City of Seattle", "MaintType": "City", "Label_Type": 1 }, "geometry": { "type": "Point", "coordinates": [ -122.369683892385979, 47.667292545588055 ] } },
{ "type": "Feature", "properties": { "OBJECTID": 236, "KC_Fac_FID": 7103, "KCParkFID": 3251202, "SiteName": "Greenwood Triangle", "SiteType": "Park Site", "Owner": "City of Seattle", "OwnerType": "City", "Manager": "City of Seattle", "ManageType": "City", "Maintd_By": "City of Seattle", "MaintType": "City", "Label_Type": 1 }, "geometry": { "type": "Point", "coordinates": [ -122.361032639577033, 47.668903643349708 ] } },
{ "type": "Feature", "properties": { "OBJECTID": 237, "KC_Fac_FID": 7104, "KCParkFID": 3251203, "SiteName": "Cascade Place", "SiteType": "Park Site", "Owner": "City of Seattle", "OwnerType": "City", "Manager": "City of Seattle", "ManageType": "City", "Maintd_By": "City of Seattle", "MaintType": "City", "Label_Type": 1 }, "geometry": { "type": "Point", "coordinates": [ -122.358092758820632, 47.666216719020426 ] } },
{ "type": "Feature", "properties": { "OBJECTID": 238, "KC_Fac_FID": 7105, "KCParkFID": 3251204, "SiteName": "Sunset Place", "SiteType": "Park Site", "Owner": "City of Seattle", "OwnerType": "City", "Manager": "City of Seattle", "ManageType": "City", "Maintd_By": "City of Seattle", "MaintType": "City", "Label_Type": 1 }, "geometry": { "type": "Point", "coordinates": [ -122.357603616137752, 47.66668554587423 ] } },
{ "type": "Feature", "properties": { "OBJECTID": 239, "KC_Fac_FID": 7106, "KCParkFID": 3251205, "SiteName": "Rainier Place", "SiteType": "Park Site", "Owner": "City of Seattle", "OwnerType": "City", "Manager": "City of Seattle", "ManageType": "City", "Maintd_By": "City of Seattle", "MaintType": "City", "Label_Type": 1 }, "geometry": { "type": "Point", "coordinates": [ -122.359432549524527, 47.667565876247416 ] } },
{ "type": "Feature", "properties": { "OBJECTID": 244, "KC_Fac_FID": 6983, "KCParkFID": 3251302, "SiteName": "West Ewing Mini Park", "SiteType": "Park Site", "Owner": "City of Seattle", "OwnerType": "City", "Manager": "City of Seattle", "ManageType": "City", "Maintd_By": "City of Seattle", "MaintType": "City", "Label_Type": 1 }, "geometry": { "type": "Point", "coordinates": [ -122.360603058364688, 47.652049264107937 ] } },
{ "type": "Feature", "properties": { "OBJECTID": 245, "KC_Fac_FID": 6990, "KCParkFID": 3251303, "SiteName": "Ross Playground", "SiteType": "Park Site", "Owner": "City of Seattle", "OwnerType": "City", "Manager": "City of Seattle", "ManageType": "City", "Maintd_By": "City of Seattle", "MaintType": "City", "Label_Type": 1 }, "geometry": { "type": "Point", "coordinates": [ -122.361346989625318, 47.659718945494355 ] } },
{ "type": "Feature", "properties": { "OBJECTID": 246, "KC_Fac_FID": 6991, "KCParkFID": 3251304, "SiteName": "Fremont Peak Park", "SiteType": "Park Site", "Owner": "City of Seattle", "OwnerType": "City", "Manager": "City of Seattle", "ManageType": "City", "Maintd_By": "City of Seattle", "MaintType": "City", "Label_Type": 1 }, "geometry": { "type": "Point", "coordinates": [ -122.356670729273418, 47.661108116370677 ] } },
{ "type": "Feature", "properties": { "OBJECTID": 247, "KC_Fac_FID": 7108, "KCParkFID": 3251305, "SiteName": "14th Avenue NW Boat Ramp", "SiteType": "Park Site", "Owner": "City of Seattle", "OwnerType": "City", "Manager": "City of Seattle", "ManageType": "City", "Maintd_By": "City of Seattle", "MaintType": "City", "Label_Type": 1 }, "geometry": { "type": "Point", "coordinates": [ -122.373592817760965, 47.661002561832667 ] } },
{ "type": "Feature", "properties": { "OBJECTID": 248, "KC_Fac_FID": 6982, "KCParkFID": 3251306, "SiteName": "Fremont Canal Park", "SiteType": "Park Site", "Owner": "City of Seattle", "OwnerType": "City", "Manager": "City of Seattle", "ManageType": "City", "Maintd_By": "City of Seattle", "MaintType": "City", "Label_Type": 1 }, "geometry": { "type": "Point", "coordinates": [ -122.357840650782279, 47.651773369552181 ] } },
{ "type": "Feature", "properties": { "OBJECTID": 249, "KC_Fac_FID": 6975, "KCParkFID": 3251402, "SiteName": "Lawton Park", "SiteType": "Park Site", "Owner": "City of Seattle", "OwnerType": "City", "Manager": "City of Seattle", "ManageType": "City", "Maintd_By": "City of Seattle", "MaintType": "City", "Label_Type": 0 }, "geometry": { "type": "Point", "coordinates": [ -122.393230915996128, 47.654929603773994 ] } },
{ "type": "Feature", "properties": { "OBJECTID": 251, "KC_Fac_FID": 7110, "KCParkFID": 3251501, "SiteName": "Kiwanis Ravine Overlook", "SiteType": "Park Site", "Owner": "City of Seattle", "OwnerType": "City", "Manager": "City of Seattle", "ManageType": "City", "Maintd_By": "City of Seattle", "MaintType": "City", "Label_Type": 1 }, "geometry": { "type": "Point", "coordinates": [ -122.403236955161802, 47.660250099264786 ] } },
{ "type": "Feature", "properties": { "OBJECTID": 252, "KC_Fac_FID": 7111, "KCParkFID": 3251502, "SiteName": "Kiwanis Memorial Preserve Park", "SiteType": "Park Site", "Owner": "City of Seattle", "OwnerType": "City", "Manager": "City of Seattle", "ManageType": "City", "Maintd_By": "City of Seattle", "MaintType": "City", "Label_Type": 1 }, "geometry": { "type": "Point", "coordinates": [ -122.400979589811882, 47.661643481487651 ] } },
{ "type": "Feature", "properties": { "OBJECTID": 253, "KC_Fac_FID": 7112, "KCParkFID": 3251503, "SiteName": "Magnolia Tidelands Park", "SiteType": "Park Site", "Owner": "City of Seattle", "OwnerType": "City", "Manager": "City of Seattle", "ManageType": "City", "Maintd_By": "City of Seattle", "MaintType": "City", "Label_Type": 0 }, "geometry": { "type": "Point", "coordinates": [ -122.417491841247212, 47.640607802826935 ] } },
{ "type": "Feature", "properties": { "OBJECTID": 256, "KC_Fac_FID": 7113, "KCParkFID": 3251504, "SiteName": "Carleton Highlands", "SiteType": "Park Site", "Owner": "City of Seattle", "OwnerType": "City", "Manager": "City of Seattle", "ManageType": "City", "Maintd_By": "City of Seattle", "MaintType": "City", "Label_Type": 1 }, "geometry": { "type": "Point", "coordinates": [ -122.415935893132115, 47.650028213407325 ] } },
{ "type": "Feature", "properties": { "OBJECTID": 257, "KC_Fac_FID": 7114, "KCParkFID": 3251505, "SiteName": "Arapahoe Triangle", "SiteType": "Park Site", "Owner": "City of Seattle", "OwnerType": "City", "Manager": "City of Seattle", "ManageType": "City", "Maintd_By": "City of Seattle", "MaintType": "City", "Label_Type": 1 }, "geometry": { "type": "Point", "coordinates": [ -122.40913945406993, 47.651291379344634 ] } },
{ "type": "Feature", "properties": { "OBJECTID": 258, "KC_Fac_FID": 2420, "KCParkFID": 3252201, "SiteName": "Magnolia Park", "SiteType": "Park Site", "Owner": "City of Seattle", "OwnerType": "City", "Manager": "City of Seattle", "ManageType": "City", "Maintd_By": "City of Seattle", "MaintType": "City", "Label_Type": 0 }, "geometry": { "type": "Point", "coordinates": [ -122.396351837528897, 47.632685385417417 ] } },
{ "type": "Feature", "properties": { "OBJECTID": 262, "KC_Fac_FID": 7139, "KCParkFID": 3252202, "SiteName": "Magnolia Playfield", "SiteType": "Park Site", "Owner": "City of Seattle", "OwnerType": "City", "Manager": "City of Seattle", "ManageType": "City", "Maintd_By": "City of Seattle", "MaintType": "City", "Label_Type": 1 }, "geometry": { "type": "Point", "coordinates": [ -122.399380585001666, 47.645458127754431 ] } },
{ "type": "Feature", "properties": { "OBJECTID": 264, "KC_Fac_FID": 7142, "KCParkFID": 3252203, "SiteName": "Parkmont Place", "SiteType": "Park Site", "Owner": "City of Seattle", "OwnerType": "City", "Manager": "City of Seattle", "ManageType": "City", "Maintd_By": "City of Seattle", "MaintType": "City", "Label_Type": 0 }, "geometry": { "type": "Point", "coordinates": [ -122.410149948192142, 47.64011205141594 ] } },
{ "type": "Feature", "properties": { "OBJECTID": 266, "KC_Fac_FID": 7143, "KCParkFID": 3252204, "SiteName": "Eastmont Place", "SiteType": "Park Site", "Owner": "City of Seattle", "OwnerType": "City", "Manager": "City of Seattle", "ManageType": "City", "Maintd_By": "City of Seattle", "MaintType": "City", "Label_Type": 1 }, "geometry": { "type": "Point", "coordinates": [ -122.405570622816427, 47.637671933549328 ] } },
{ "type": "Feature", "properties": { "OBJECTID": 267, "KC_Fac_FID": 7230, "KCParkFID": 3252205, "SiteName": "Carleton Center", "SiteType": "Park Site", "Owner": "City of Seattle", "OwnerType": "City", "Manager": "City of Seattle", "ManageType": "City", "Maintd_By": "City of Seattle", "MaintType": "City", "Label_Type": 1 }, "geometry": { "type": "Point", "coordinates": [ -122.406385427915538, 47.63941301914673 ] } },
{ "type": "Feature", "properties": { "OBJECTID": 268, "KC_Fac_FID": 2419, "KCParkFID": 3252301, "SiteName": "Interbay Athletic Field", "SiteType": "Park Site", "Owner": "City of Seattle", "OwnerType": "City", "Manager": "City of Seattle", "ManageType": "City", "Maintd_By": "City of Seattle", "MaintType": "City", "Label_Type": 1 }, "geometry": { "type": "Point", "coordinates": [ -122.378973955719999, 47.646961624415027 ] } },
{ "type": "Feature", "properties": { "OBJECTID": 269, "KC_Fac_FID": 6977, "KCParkFID": 3252302, "SiteName": "Thorndyke Park", "SiteType": "Park Site", "Owner": "City of Seattle", "OwnerType": "City", "Manager": "City of Seattle", "ManageType": "City", "Maintd_By": "City of Seattle", "MaintType": "City", "Label_Type": 0 }, "geometry": { "type": "Point", "coordinates": [ -122.390625718868634, 47.634673478052676 ] } },
{ "type": "Feature", "properties": { "OBJECTID": 270, "KC_Fac_FID": 6977, "KCParkFID": 3252302, "SiteName": "Thorndyke Park", "SiteType": "Park Site", "Owner": "City of Seattle", "OwnerType": "City", "Manager": "City of Seattle", "ManageType": "City", "Maintd_By": "City of Seattle", "MaintType": "City", "Label_Type": 1 }, "geometry": { "type": "Point", "coordinates": [ -122.389691448911194, 47.63552966368777 ] } },
{ "type": "Feature", "properties": { "OBJECTID": 271, "KC_Fac_FID": 6978, "KCParkFID": 3252303, "SiteName": "Smith Cove Park", "SiteType": "Park Site", "Owner": "City of Seattle", "OwnerType": "City", "Manager": "City of Seattle", "ManageType": "City", "Maintd_By": "City of Seattle", "MaintType": "City", "Label_Type": 1 }, "geometry": { "type": "Point", "coordinates": [ -122.387671404346307, 47.632689681405587 ] } },
{ "type": "Feature", "properties": { "OBJECTID": 272, "KC_Fac_FID": 7137, "KCParkFID": 3252304, "SiteName": "Bayview Playground", "SiteType": "Park Site", "Owner": "City of Seattle", "OwnerType": "City", "Manager": "City of Seattle", "ManageType": "City", "Maintd_By": "City of Seattle", "MaintType": "City", "Label_Type": 1 }, "geometry": { "type": "Point", "coordinates": [ -122.386786655517639, 47.643801267247738 ] } },
{ "type": "Feature", "properties": { "OBJECTID": 273, "KC_Fac_FID": 7138, "KCParkFID": 3252305, "SiteName": "Ella Bailey Park", "SiteType": "Park Site", "Owner": "City of Seattle", "OwnerType": "City", "Manager": "City of Seattle", "ManageType": "City", "Maintd_By": "City of Seattle", "MaintType": "City", "Label_Type": 1 }, "geometry": { "type": "Point", "coordinates": [ -122.391058026580225, 47.640584915666409 ] } },
{ "type": "Feature", "properties": { "OBJECTID": 274, "KC_Fac_FID": 7140, "KCParkFID": 3252306, "SiteName": "Magnolia Greenbelt", "SiteType": "Park Site", "Owner": "City of Seattle", "OwnerType": "City", "Manager": "City of Seattle", "ManageType": "City", "Maintd_By": "City of Seattle", "MaintType": "City", "Label_Type": 0 }, "geometry": { "type": "Point", "coordinates": [ -122.389159856425849, 47.633628589131959 ] } },
{ "type": "Feature", "properties": { "OBJECTID": 276, "KC_Fac_FID": 7141, "KCParkFID": 3252307, "SiteName": "Condon Way Centerstrip", "SiteType": "Park Site", "Owner": "City of Seattle", "OwnerType": "City", "Manager": "City of Seattle", "ManageType": "City", "Maintd_By": "City of Seattle", "MaintType": "City", "Label_Type": 0 }, "geometry": { "type": "Point", "coordinates": [ -122.396376440871762, 47.638759517200114 ] } },
{ "type": "Feature", "properties": { "OBJECTID": 278, "KC_Fac_FID": 7226, "KCParkFID": 3252308, "SiteName": "Interbay Golf", "SiteType": "Park Site", "Owner": "City of Seattle", "OwnerType": "City", "Manager": "City of Seattle", "ManageType": "City", "Maintd_By": "City of Seattle", "MaintType": "City", "Label_Type": 1 }, "geometry": { "type": "Point", "coordinates": [ -122.378455184700215, 47.643752757034136 ] } },
{ "type": "Feature", "properties": { "OBJECTID": 279, "KC_Fac_FID": 7227, "KCParkFID": 3252309, "SiteName": "Interbay P-patch", "SiteType": "Park Site", "Owner": "City of Seattle", "OwnerType": "City", "Manager": "City of Seattle", "ManageType": "City", "Maintd_By": "City of Seattle", "MaintType": "City", "Label_Type": 1 }, "geometry": { "type": "Point", "coordinates": [ -122.376996406397993, 47.641182387870984 ] } },
{ "type": "Feature", "properties": { "OBJECTID": 281, "KC_Fac_FID": 2418, "KCParkFID": 3252402, "SiteName": "Queen Anne Bowl Playfield", "SiteType": "Park Site", "Owner": "City of Seattle", "OwnerType": "City", "Manager": "City of Seattle", "ManageType": "City", "Maintd_By": "City of Seattle", "MaintType": "City", "Label_Type": 0 }, "geometry": { "type": "Point", "coordinates": [ -122.361272285567665, 47.646226490056598 ] } },
{ "type": "Feature", "properties": { "OBJECTID": 283, "KC_Fac_FID": 6979, "KCParkFID": 3252403, "SiteName": "Soundview Terrace", "SiteType": "Park Site", "Owner": "City of Seattle", "OwnerType": "City", "Manager": "City of Seattle", "ManageType": "City", "Maintd_By": "City of Seattle", "MaintType": "City", "Label_Type": 1 }, "geometry": { "type": "Point", "coordinates": [ -122.371409026389941, 47.640849304138044 ] } },
{ "type": "Feature", "properties": { "OBJECTID": 284, "KC_Fac_FID": 6980, "KCParkFID": 3252404, "SiteName": "David Rodgers Park", "SiteType": "Park Site", "Owner": "City of Seattle", "OwnerType": "City", "Manager": "City of Seattle", "ManageType": "City", "Maintd_By": "City of Seattle", "MaintType": "City", "Label_Type": 1 }, "geometry": { "type": "Point", "coordinates": [ -122.359483982135202, 47.644147160550297 ] } },
{ "type": "Feature", "properties": { "OBJECTID": 285, "KC_Fac_FID": 7132, "KCParkFID": 3252405, "SiteName": "West Queen Anne Playfield", "SiteType": "Park Site", "Owner": "City of Seattle", "OwnerType": "City", "Manager": "City of Seattle", "ManageType": "City", "Maintd_By": "City of Seattle", "MaintType": "City", "Label_Type": 1 }, "geometry": { "type": "Point", "coordinates": [ -122.359632329529063, 47.635349046159106 ] } },
{ "type": "Feature", "properties": { "OBJECTID": 286, "KC_Fac_FID": 7133, "KCParkFID": 3252406, "SiteName": "Coe Play Park", "SiteType": "Park Site", "Owner": "City of Seattle", "OwnerType": "City", "Manager": "City of Seattle", "ManageType": "City", "Maintd_By": "City of Seattle", "MaintType": "City", "Label_Type": 1 }, "geometry": { "type": "Point", "coordinates": [ -122.365953019208391, 47.640107207908329 ] } },
{ "type": "Feature", "properties": { "OBJECTID": 287, "KC_Fac_FID": 7134, "KCParkFID": 3252407, "SiteName": "Queen Anne Boulevard", "SiteType": "Park Site", "Owner": "City of Seattle", "OwnerType": "City", "Manager": "City of Seattle", "ManageType": "City", "Maintd_By": "City of Seattle", "MaintType": "City", "Label_Type": 0 }, "geometry": { "type": "Point", "coordinates": [ -122.355232397567519, 47.629300532845114 ] } },
{ "type": "Feature", "properties": { "OBJECTID": 290, "KC_Fac_FID": 7135, "KCParkFID": 3252408, "SiteName": "12th West & West Howe Park", "SiteType": "Park Site", "Owner": "City of Seattle", "OwnerType": "City", "Manager": "City of Seattle", "ManageType": "City", "Maintd_By": "City of Seattle", "MaintType": "City", "Label_Type": 1 }, "geometry": { "type": "Point", "coordinates": [ -122.373095007265775, 47.636471467642508 ] } },
{ "type": "Feature", "properties": { "OBJECTID": 291, "KC_Fac_FID": 7136, "KCParkFID": 3252409, "SiteName": "SW Queen Anne Greenbelt", "SiteType": "Park Site", "Owner": "City of Seattle", "OwnerType": "City", "Manager": "City of Seattle", "ManageType": "City", "Maintd_By": "City of Seattle", "MaintType": "City", "Label_Type": 0 }, "geometry": { "type": "Point", "coordinates": [ -122.374399687961571, 47.634216497796317 ] } },
{ "type": "Feature", "properties": { "OBJECTID": 297, "KC_Fac_FID": 2416, "KCParkFID": 3252502, "SiteName": "Myrtle Edwards Park", "SiteType": "Park Site", "Owner": "City of Seattle", "OwnerType": "City", "Manager": "City of Seattle", "ManageType": "City", "Maintd_By": "City of Seattle", "MaintType": "City", "Label_Type": 0 }, "geometry": { "type": "Point", "coordinates": [ -122.356629031965667, 47.616074315242912 ] } },
{ "type": "Feature", "properties": { "OBJECTID": 299, "KC_Fac_FID": 2765, "KCParkFID": 3252503, "SiteName": "Kinnear Park", "SiteType": "Park Site", "Owner": "City of Seattle", "OwnerType": "City", "Manager": "City of Seattle", "ManageType": "City", "Maintd_By": "City of Seattle", "MaintType": "City", "Label_Type": 1 }, "geometry": { "type": "Point", "coordinates": [ -122.367104303451811, 47.627284399136251 ] } },
{ "type": "Feature", "properties": { "OBJECTID": 300, "KC_Fac_FID": 6992, "KCParkFID": 3252504, "SiteName": "Kerry Park and Viewpoint", "SiteType": "Park Site", "Owner": "City of Seattle", "OwnerType": "City", "Manager": "City of Seattle", "ManageType": "City", "Maintd_By": "City of Seattle", "MaintType": "City", "Label_Type": 1 }, "geometry": { "type": "Point", "coordinates": [ -122.35986839573917, 47.629246210386043 ] } },
{ "type": "Feature", "properties": { "OBJECTID": 302, "KC_Fac_FID": 6993, "KCParkFID": 3252505, "SiteName": "Counterbalance Park", "SiteType": "Park Site", "Owner": "City of Seattle", "OwnerType": "City", "Manager": "City of Seattle", "ManageType": "City", "Maintd_By": "City of Seattle", "MaintType": "City", "Label_Type": 1 }, "geometry": { "type": "Point", "coordinates": [ -122.356323824842065, 47.62568134110645 ] } },
{ "type": "Feature", "properties": { "OBJECTID": 303, "KC_Fac_FID": 7144, "KCParkFID": 3252506, "SiteName": "Marshall Park", "SiteType": "Park Site", "Owner": "City of Seattle", "OwnerType": "City", "Manager": "City of Seattle", "ManageType": "City", "Maintd_By": "City of Seattle", "MaintType": "City", "Label_Type": 1 }, "geometry": { "type": "Point", "coordinates": [ -122.366806940612065, 47.629437388909295 ] } },
{ "type": "Feature", "properties": { "OBJECTID": 304, "KC_Fac_FID": 7145, "KCParkFID": 3252507, "SiteName": "Parsons Gardens", "SiteType": "Park Site", "Owner": "City of Seattle", "OwnerType": "City", "Manager": "City of Seattle", "ManageType": "City", "Maintd_By": "City of Seattle", "MaintType": "City", "Label_Type": 1 }, "geometry": { "type": "Point", "coordinates": [ -122.366081667651471, 47.629867897482541 ] } },
{ "type": "Feature", "properties": { "OBJECTID": 305, "KC_Fac_FID": 7147, "KCParkFID": 3252508, "SiteName": "Kinnear Place", "SiteType": "Park Site", "Owner": "City of Seattle", "OwnerType": "City", "Manager": "City of Seattle", "ManageType": "City", "Maintd_By": "City of Seattle", "MaintType": "City", "Label_Type": 1 }, "geometry": { "type": "Point", "coordinates": [ -122.356959716819929, 47.626160602843591 ] } },
{ "type": "Feature", "properties": { "OBJECTID": 306, "KC_Fac_FID": 7229, "KCParkFID": 3252509, "SiteName": "Blaine Place", "SiteType": "Park Site", "Owner": "City of Seattle", "OwnerType": "City", "Manager": "City of Seattle", "ManageType": "City", "Maintd_By": "City of Seattle", "MaintType": "City", "Label_Type": 1 }, "geometry": { "type": "Point", "coordinates": [ -122.364153265093535, 47.626810118552413 ] } },
{ "type": "Feature", "properties": { "OBJECTID": 307, "KC_Fac_FID": 7845, "KCParkFID": 3252510, "SiteName": "Bayview-Kinnear Park", "SiteType": "Park Site", "Owner": "City of Seattle", "OwnerType": "City", "Manager": "City of Seattle", "ManageType": "City", "Maintd_By": "City of Seattle", "MaintType": "City", "Label_Type": 0 }, "geometry": { "type": "Point", "coordinates": [ -122.360460802394385, 47.628870985924827 ] } },
{ "type": "Feature", "properties": { "OBJECTID": 309, "KC_Fac_FID": 6976, "KCParkFID": 3252602, "SiteName": "Ursula Judkins Viewpoint", "SiteType": "Park Site", "Owner": "City of Seattle", "OwnerType": "City", "Manager": "City of Seattle", "ManageType": "City", "Maintd_By": "City of Seattle", "MaintType": "City", "Label_Type": 1 }, "geometry": { "type": "Point", "coordinates": [ -122.390232764491557, 47.632052112345441 ] } },
{ "type": "Feature", "properties": { "OBJECTID": 310, "KC_Fac_FID": 7241, "KCParkFID": 3252603, "SiteName": "Open Water Park", "SiteType": "Park Site", "Owner": "City of Seattle", "OwnerType": "City", "Manager": "City of Seattle", "ManageType": "City", "Maintd_By": "City of Seattle", "MaintType": "City", "Label_Type": 1 }, "geometry": { "type": "Point", "coordinates": [ -122.386694674096375, 47.629556432782927 ] } },
{ "type": "Feature", "properties": { "OBJECTID": 328, "KC_Fac_FID": 7079, "KCParkFID": 3262401, "SiteName": "Llandover Woods Greenspace", "SiteType": "Park Site", "Owner": "City of Seattle", "OwnerType": "City", "Manager": "City of Seattle", "ManageType": "City", "Maintd_By": "City of Seattle", "MaintType": "City", "Label_Type": 1 }, "geometry": { "type": "Point", "coordinates": [ -122.364994393877751, 47.73301522534004 ] } },
{ "type": "Feature", "properties": { "OBJECTID": 329, "KC_Fac_FID": 2408, "KCParkFID": 3262501, "SiteName": "Carkeek Park", "SiteType": "Park Site", "Owner": "City of Seattle", "OwnerType": "City", "Manager": "City of Seattle", "ManageType": "City", "Maintd_By": "City of Seattle", "MaintType": "City", "Label_Type": 0 }, "geometry": { "type": "Point", "coordinates": [ -122.364332794166458, 47.70703655170847 ] } },
{ "type": "Feature", "properties": { "OBJECTID": 331, "KC_Fac_FID": 6998, "KCParkFID": 3262502, "SiteName": "Broadview Park", "SiteType": "Park Site", "Owner": "City of Seattle", "OwnerType": "City", "Manager": "City of Seattle", "ManageType": "City", "Maintd_By": "City of Seattle", "MaintType": "City", "Label_Type": 1 }, "geometry": { "type": "Point", "coordinates": [ -122.355835429528, 47.717937001425355 ] } },
{ "type": "Feature", "properties": { "OBJECTID": 332, "KC_Fac_FID": 7083, "KCParkFID": 3262503, "SiteName": "Pipers Creek Natural Area", "SiteType": "Park Site", "Owner": "City of Seattle", "OwnerType": "City", "Manager": "City of Seattle", "ManageType": "City", "Maintd_By": "City of Seattle", "MaintType": "City", "Label_Type": 1 }, "geometry": { "type": "Point", "coordinates": [ -122.364020754877643, 47.71521070295239 ] } },
{ "type": "Feature", "properties": { "OBJECTID": 333, "KC_Fac_FID": 2407, "KCParkFID": 3263401, "SiteName": "Golden Gardens Park", "SiteType": "Park Site", "Owner": "City of Seattle", "OwnerType": "City", "Manager": "City of Seattle", "ManageType": "City", "Maintd_By": "City of Seattle", "MaintType": "City", "Label_Type": 0 }, "geometry": { "type": "Point", "coordinates": [ -122.401498562367394, 47.691521519371449 ] } },
{ "type": "Feature", "properties": { "OBJECTID": 335, "KC_Fac_FID": 2406, "KCParkFID": 3263501, "SiteName": "Soundview Playfield", "SiteType": "Park Site", "Owner": "City of Seattle", "OwnerType": "City", "Manager": "City of Seattle", "ManageType": "City", "Maintd_By": "City of Seattle", "MaintType": "City", "Label_Type": 1 }, "geometry": { "type": "Point", "coordinates": [ -122.378878537272897, 47.6954165189536 ] } },
{ "type": "Feature", "properties": { "OBJECTID": 336, "KC_Fac_FID": 2405, "KCParkFID": 3263502, "SiteName": "North Beach Park", "SiteType": "Park Site", "Owner": "City of Seattle", "OwnerType": "City", "Manager": "City of Seattle", "ManageType": "City", "Maintd_By": "City of Seattle", "MaintType": "City", "Label_Type": 0 }, "geometry": { "type": "Point", "coordinates": [ -122.391548829046144, 47.696697065142132 ] } },
{ "type": "Feature", "properties": { "OBJECTID": 338, "KC_Fac_FID": 7084, "KCParkFID": 3263504, "SiteName": "Blue Ridge Circle", "SiteType": "Park Site", "Owner": "City of Seattle", "OwnerType": "City", "Manager": "City of Seattle", "ManageType": "City", "Maintd_By": "City of Seattle", "MaintType": "City", "Label_Type": 1 }, "geometry": { "type": "Point", "coordinates": [ -122.380444566238666, 47.704331143349421 ] } },
{ "type": "Feature", "properties": { "OBJECTID": 339, "KC_Fac_FID": 7085, "KCParkFID": 3263505, "SiteName": "Blue Ridge Places", "SiteType": "Park Site", "Owner": "City of Seattle", "OwnerType": "City", "Manager": "City of Seattle", "ManageType": "City", "Maintd_By": "City of Seattle", "MaintType": "City", "Label_Type": 0 }, "geometry": { "type": "Point", "coordinates": [ -122.381178999150023, 47.703041891843846 ] } },
{ "type": "Feature", "properties": { "OBJECTID": 341, "KC_Fac_FID": 7086, "KCParkFID": 3263506, "SiteName": "Crown Hill Glen", "SiteType": "Park Site", "Owner": "City of Seattle", "OwnerType": "City", "Manager": "City of Seattle", "ManageType": "City", "Maintd_By": "City of Seattle", "MaintType": "City", "Label_Type": 1 }, "geometry": { "type": "Point", "coordinates": [ -122.381395610172788, 47.693702409682487 ] } },
{ "type": "Feature", "properties": { "OBJECTID": 343, "KC_Fac_FID": 2404, "KCParkFID": 3263603, "SiteName": "Sandel Playground", "SiteType": "Park Site", "Owner": "City of Seattle", "OwnerType": "City", "Manager": "City of Seattle", "ManageType": "City", "Maintd_By": "City of Seattle", "MaintType": "City", "Label_Type": 1 }, "geometry": { "type": "Point", "coordinates": [ -122.358699129056774, 47.69513465291395 ] } },
{ "type": "Feature", "properties": { "OBJECTID": 497, "KC_Fac_FID": 7078, "KCParkFID": 4230101, "SiteName": "Lakeridge Playground", "SiteType": "Park Site", "Owner": "City of Seattle", "OwnerType": "City", "Manager": "City of Seattle", "ManageType": "City", "Maintd_By": "City of Seattle", "MaintType": "City", "Label_Type": 1 }, "geometry": { "type": "Point", "coordinates": [ -122.246840942918155, 47.510319403754885 ] } },
{ "type": "Feature", "properties": { "OBJECTID": 498, "KC_Fac_FID": 2554, "KCParkFID": 4230102, "SiteName": "Lakeridge Park", "SiteType": "Park Site", "Owner": "City of Seattle", "OwnerType": "City", "Manager": "City of Seattle", "ManageType": "City", "Maintd_By": "City of Seattle", "MaintType": "City", "Label_Type": 0 }, "geometry": { "type": "Point", "coordinates": [ -122.247167084190977, 47.50604463804622 ] } },
{ "type": "Feature", "properties": { "OBJECTID": 500, "KC_Fac_FID": 2564, "KCParkFID": 4230201, "SiteName": "Kubota Gardens", "SiteType": "Park Site", "Owner": "City of Seattle", "OwnerType": "City", "Manager": "City of Seattle", "ManageType": "City", "Maintd_By": "City of Seattle", "MaintType": "City", "Label_Type": 0 }, "geometry": { "type": "Point", "coordinates": [ -122.26682203255011, 47.509251969342422 ] } },
{ "type": "Feature", "properties": { "OBJECTID": 502, "KC_Fac_FID": 2797, "KCParkFID": 4230202, "SiteName": "Fred Hutchinson Playground", "SiteType": "Park Site", "Owner": "City of Seattle", "OwnerType": "City", "Manager": "City of Seattle", "ManageType": "City", "Maintd_By": "City of Seattle", "MaintType": "City", "Label_Type": 1 }, "geometry": { "type": "Point", "coordinates": [ -122.260061341788472, 47.514311463996947 ] } },
{ "type": "Feature", "properties": { "OBJECTID": 503, "KC_Fac_FID": 7217, "KCParkFID": 4230203, "SiteName": "Thayer Place", "SiteType": "Park Site", "Owner": "City of Seattle", "OwnerType": "City", "Manager": "City of Seattle", "ManageType": "City", "Maintd_By": "City of Seattle", "MaintType": "City", "Label_Type": 1 }, "geometry": { "type": "Point", "coordinates": [ -122.250035790522475, 47.510612737681015 ] } },
{ "type": "Feature", "properties": { "OBJECTID": 596, "KC_Fac_FID": 2510, "KCParkFID": 4240301, "SiteName": "Frink Park", "SiteType": "Park Site", "Owner": "City of Seattle", "OwnerType": "City", "Manager": "City of Seattle", "ManageType": "City", "Maintd_By": "City of Seattle", "MaintType": "City", "Label_Type": 0 }, "geometry": { "type": "Point", "coordinates": [ -122.289758977461489, 47.598505137006391 ] } },
{ "type": "Feature", "properties": { "OBJECTID": 598, "KC_Fac_FID": 2671, "KCParkFID": 4240302, "SiteName": "Leschi Park", "SiteType": "Park Site", "Owner": "City of Seattle", "OwnerType": "City", "Manager": "City of Seattle", "ManageType": "City", "Maintd_By": "City of Seattle", "MaintType": "City", "Label_Type": 0 }, "geometry": { "type": "Point", "coordinates": [ -122.289037665502732, 47.600940948173196 ] } },
{ "type": "Feature", "properties": { "OBJECTID": 601, "KC_Fac_FID": 7846, "KCParkFID": 4240304, "SiteName": "South Day Street Park", "SiteType": "Park Site", "Owner": "City of Seattle", "OwnerType": "City", "Manager": "City of Seattle", "ManageType": "City", "Maintd_By": "City of Seattle", "MaintType": "City", "Label_Type": 1 }, "geometry": { "type": "Point", "coordinates": [ -122.285734636120964, 47.590366693725841 ] } },
{ "type": "Feature", "properties": { "OBJECTID": 602, "KC_Fac_FID": 2369, "KCParkFID": 4240401, "SiteName": "Pratt Park", "SiteType": "Park Site", "Owner": "City of Seattle", "OwnerType": "City", "Manager": "City of Seattle", "ManageType": "City", "Maintd_By": "City of Seattle", "MaintType": "City", "Label_Type": 1 }, "geometry": { "type": "Point", "coordinates": [ -122.307464451394296, 47.600704150897307 ] } },
{ "type": "Feature", "properties": { "OBJECTID": 603, "KC_Fac_FID": 2520, "KCParkFID": 4240402, "SiteName": "Judkins Park and Playfield", "SiteType": "Park Site", "Owner": "City of Seattle", "OwnerType": "City", "Manager": "City of Seattle", "ManageType": "City", "Maintd_By": "City of Seattle", "MaintType": "City", "Label_Type": 1 }, "geometry": { "type": "Point", "coordinates": [ -122.30373336161378, 47.595280558095709 ] } },
{ "type": "Feature", "properties": { "OBJECTID": 604, "KC_Fac_FID": 6941, "KCParkFID": 4240403, "SiteName": "Judge Charles M Stokes Overlook", "SiteType": "Park Site", "Owner": "City of Seattle", "OwnerType": "City", "Manager": "City of Seattle", "ManageType": "City", "Maintd_By": "City of Seattle", "MaintType": "City", "Label_Type": 1 }, "geometry": { "type": "Point", "coordinates": [ -122.306375976373914, 47.591744261331698 ] } },
{ "type": "Feature", "properties": { "OBJECTID": 605, "KC_Fac_FID": 6942, "KCParkFID": 4240404, "SiteName": "Sam Smith Park", "SiteType": "Park Site", "Owner": "City of Seattle", "OwnerType": "City", "Manager": "City of Seattle", "ManageType": "City", "Maintd_By": "City of Seattle", "MaintType": "City", "Label_Type": 1 }, "geometry": { "type": "Point", "coordinates": [ -122.300291275628396, 47.590126434637412 ] } },
{ "type": "Feature", "properties": { "OBJECTID": 606, "KC_Fac_FID": 6960, "KCParkFID": 4240405, "SiteName": "Benvenuto Viewpoint", "SiteType": "Park Site", "Owner": "City of Seattle", "OwnerType": "City", "Manager": "City of Seattle", "ManageType": "City", "Maintd_By": "City of Seattle", "MaintType": "City", "Label_Type": 1 }, "geometry": { "type": "Point", "coordinates": [ -122.304388483877119, 47.58967423147736 ] } },
{ "type": "Feature", "properties": { "OBJECTID": 607, "KC_Fac_FID": 7039, "KCParkFID": 4240406, "SiteName": "Flo Ware Park", "SiteType": "Park Site", "Owner": "City of Seattle", "OwnerType": "City", "Manager": "City of Seattle", "ManageType": "City", "Maintd_By": "City of Seattle", "MaintType": "City", "Label_Type": 1 }, "geometry": { "type": "Point", "coordinates": [ -122.295866541887776, 47.599557217307201 ] } },
{ "type": "Feature", "properties": { "OBJECTID": 608, "KC_Fac_FID": 7040, "KCParkFID": 4240407, "SiteName": "Spruce Street Mini Park", "SiteType": "Park Site", "Owner": "City of Seattle", "OwnerType": "City", "Manager": "City of Seattle", "ManageType": "City", "Maintd_By": "City of Seattle", "MaintType": "City", "Label_Type": 1 }, "geometry": { "type": "Point", "coordinates": [ -122.304648422736889, 47.603090943605622 ] } },
{ "type": "Feature", "properties": { "OBJECTID": 609, "KC_Fac_FID": 7041, "KCParkFID": 4240408, "SiteName": "Dr. Blanche Lavizzo Park", "SiteType": "Park Site", "Owner": "City of Seattle", "OwnerType": "City", "Manager": "City of Seattle", "ManageType": "City", "Maintd_By": "City of Seattle", "MaintType": "City", "Label_Type": 1 }, "geometry": { "type": "Point", "coordinates": [ -122.304355747267905, 47.600220959737122 ] } },
{ "type": "Feature", "properties": { "OBJECTID": 610, "KC_Fac_FID": 7171, "KCParkFID": 4240409, "SiteName": "Peppis Playground", "SiteType": "Park Site", "Owner": "City of Seattle", "OwnerType": "City", "Manager": "City of Seattle", "ManageType": "City", "Maintd_By": "City of Seattle", "MaintType": "City", "Label_Type": 1 }, "geometry": { "type": "Point", "coordinates": [ -122.290602571439862, 47.602725294046486 ] } },
{ "type": "Feature", "properties": { "OBJECTID": 611, "KC_Fac_FID": 7172, "KCParkFID": 4240410, "SiteName": "Mt Baker Ridge Viewpoint", "SiteType": "Park Site", "Owner": "City of Seattle", "OwnerType": "City", "Manager": "City of Seattle", "ManageType": "City", "Maintd_By": "City of Seattle", "MaintType": "City", "Label_Type": 1 }, "geometry": { "type": "Point", "coordinates": [ -122.292614899666262, 47.589982086064204 ] } },
{ "type": "Feature", "properties": { "OBJECTID": 612, "KC_Fac_FID": 2410, "KCParkFID": 4240501, "SiteName": "Dr. Rizal Park", "SiteType": "Park Site", "Owner": "City of Seattle", "OwnerType": "City", "Manager": "City of Seattle", "ManageType": "City", "Maintd_By": "City of Seattle", "MaintType": "City", "Label_Type": 1 }, "geometry": { "type": "Point", "coordinates": [ -122.318452113725627, 47.592681186407198 ] } },
{ "type": "Feature", "properties": { "OBJECTID": 613, "KC_Fac_FID": 2518, "KCParkFID": 4240502, "SiteName": "Yesler Terrace Park", "SiteType": "Park Site", "Owner": "City of Seattle", "OwnerType": "City", "Manager": "City of Seattle", "ManageType": "City", "Maintd_By": "City of Seattle", "MaintType": "City", "Label_Type": 0 }, "geometry": { "type": "Point", "coordinates": [ -122.320085051956781, 47.601264073643485 ] } },
{ "type": "Feature", "properties": { "OBJECTID": 615, "KC_Fac_FID": 6958, "KCParkFID": 4240504, "SiteName": "Sturgus Park", "SiteType": "Park Site", "Owner": "City of Seattle", "OwnerType": "City", "Manager": "City of Seattle", "ManageType": "City", "Maintd_By": "City of Seattle", "MaintType": "City", "Label_Type": 1 }, "geometry": { "type": "Point", "coordinates": [ -122.313953307715153, 47.59398448613009 ] } },
{ "type": "Feature", "properties": { "OBJECTID": 616, "KC_Fac_FID": 6959, "KCParkFID": 4240505, "SiteName": "Daejeon Park", "SiteType": "Park Site", "Owner": "City of Seattle", "OwnerType": "City", "Manager": "City of Seattle", "ManageType": "City", "Maintd_By": "City of Seattle", "MaintType": "City", "Label_Type": 0 }, "geometry": { "type": "Point", "coordinates": [ -122.31215779269759, 47.591888822143019 ] } },
{ "type": "Feature", "properties": { "OBJECTID": 618, "KC_Fac_FID": 7042, "KCParkFID": 4240506, "SiteName": "Horiuchi Park", "SiteType": "Park Site", "Owner": "City of Seattle", "OwnerType": "City", "Manager": "City of Seattle", "ManageType": "City", "Maintd_By": "City of Seattle", "MaintType": "City", "Label_Type": 1 }, "geometry": { "type": "Point", "coordinates": [ -122.318982480239583, 47.603131692725391 ] } },
{ "type": "Feature", "properties": { "OBJECTID": 619, "KC_Fac_FID": 7043, "KCParkFID": 4240507, "SiteName": "Lewis Park", "SiteType": "Park Site", "Owner": "City of Seattle", "OwnerType": "City", "Manager": "City of Seattle", "ManageType": "City", "Maintd_By": "City of Seattle", "MaintType": "City", "Label_Type": 0 }, "geometry": { "type": "Point", "coordinates": [ -122.315265475986749, 47.593750060028476 ] } },
{ "type": "Feature", "properties": { "OBJECTID": 621, "KC_Fac_FID": 7044, "KCParkFID": 4240508, "SiteName": "Kobe Terrace", "SiteType": "Park Site", "Owner": "City of Seattle", "OwnerType": "City", "Manager": "City of Seattle", "ManageType": "City", "Maintd_By": "City of Seattle", "MaintType": "City", "Label_Type": 1 }, "geometry": { "type": "Point", "coordinates": [ -122.32449535472027, 47.6004200473567 ] } },
{ "type": "Feature", "properties": { "OBJECTID": 622, "KC_Fac_FID": 7045, "KCParkFID": 4240509, "SiteName": "Hing Hay Park", "SiteType": "Park Site", "Owner": "City of Seattle", "OwnerType": "City", "Manager": "City of Seattle", "ManageType": "City", "Maintd_By": "City of Seattle", "MaintType": "City", "Label_Type": 1 }, "geometry": { "type": "Point", "coordinates": [ -122.325434571491002, 47.598607407391164 ] } },
{ "type": "Feature", "properties": { "OBJECTID": 623, "KC_Fac_FID": 7046, "KCParkFID": 4240510, "SiteName": "International Childrens Park", "SiteType": "Park Site", "Owner": "City of Seattle", "OwnerType": "City", "Manager": "City of Seattle", "ManageType": "City", "Maintd_By": "City of Seattle", "MaintType": "City", "Label_Type": 1 }, "geometry": { "type": "Point", "coordinates": [ -122.323413395940264, 47.59689721647041 ] } },
{ "type": "Feature", "properties": { "OBJECTID": 624, "KC_Fac_FID": 7047, "KCParkFID": 4240511, "SiteName": "City Hall Park", "SiteType": "Park Site", "Owner": "City of Seattle", "OwnerType": "City", "Manager": "City of Seattle", "ManageType": "City", "Maintd_By": "City of Seattle", "MaintType": "City", "Label_Type": 1 }, "geometry": { "type": "Point", "coordinates": [ -122.329874891656019, 47.602021414471011 ] } },
{ "type": "Feature", "properties": { "OBJECTID": 625, "KC_Fac_FID": 7048, "KCParkFID": 4240512, "SiteName": "Occidental Square", "SiteType": "Park Site", "Owner": "City of Seattle", "OwnerType": "City", "Manager": "City of Seattle", "ManageType": "City", "Maintd_By": "City of Seattle", "MaintType": "City", "Label_Type": 1 }, "geometry": { "type": "Point", "coordinates": [ -122.333273292120197, 47.600462746865396 ] } },
{ "type": "Feature", "properties": { "OBJECTID": 626, "KC_Fac_FID": 7167, "KCParkFID": 4240513, "SiteName": "Prefontaine Place", "SiteType": "Park Site", "Owner": "City of Seattle", "OwnerType": "City", "Manager": "City of Seattle", "ManageType": "City", "Maintd_By": "City of Seattle", "MaintType": "City", "Label_Type": 1 }, "geometry": { "type": "Point", "coordinates": [ -122.330884201267978, 47.601844491599266 ] } },
{ "type": "Feature", "properties": { "OBJECTID": 627, "KC_Fac_FID": 7168, "KCParkFID": 4240514, "SiteName": "Union Station Square", "SiteType": "Park Site", "Owner": "City of Seattle", "OwnerType": "City", "Manager": "City of Seattle", "ManageType": "City", "Maintd_By": "City of Seattle", "MaintType": "City", "Label_Type": 1 }, "geometry": { "type": "Point", "coordinates": [ -122.33008457942276, 47.599361194313197 ] } },
{ "type": "Feature", "properties": { "OBJECTID": 628, "KC_Fac_FID": 7169, "KCParkFID": 4240515, "SiteName": "Beacon Place", "SiteType": "Park Site", "Owner": "City of Seattle", "OwnerType": "City", "Manager": "City of Seattle", "ManageType": "City", "Maintd_By": "City of Seattle", "MaintType": "City", "Label_Type": 1 }, "geometry": { "type": "Point", "coordinates": [ -122.318444428795203, 47.59619756172544 ] } },
{ "type": "Feature", "properties": { "OBJECTID": 629, "KC_Fac_FID": 7170, "KCParkFID": 4240516, "SiteName": "Katie Blacks Garden", "SiteType": "Park Site", "Owner": "City of Seattle", "OwnerType": "City", "Manager": "City of Seattle", "ManageType": "City", "Maintd_By": "City of Seattle", "MaintType": "City", "Label_Type": 1 }, "geometry": { "type": "Point", "coordinates": [ -122.317644631821196, 47.590420581814811 ] } },
{ "type": "Feature", "properties": { "OBJECTID": 631, "KC_Fac_FID": 7049, "KCParkFID": 4240601, "SiteName": "Pioneer Square", "SiteType": "Park Site", "Owner": "City of Seattle", "OwnerType": "City", "Manager": "City of Seattle", "ManageType": "City", "Maintd_By": "City of Seattle", "MaintType": "City", "Label_Type": 1 }, "geometry": { "type": "Point", "coordinates": [ -122.333887304734517, 47.602076347986632 ] } },
{ "type": "Feature", "properties": { "OBJECTID": 632, "KC_Fac_FID": 7855, "KCParkFID": 4240602, "SiteName": "Washington Street Boat Landing", "SiteType": "Park Site", "Owner": "City of Seattle", "OwnerType": "City", "Manager": "City of Seattle", "ManageType": "City", "Maintd_By": "City of Seattle", "MaintType": "City", "Label_Type": 1 }, "geometry": { "type": "Point", "coordinates": [ -122.33623782916132, 47.600912778325402 ] } },
{ "type": "Feature", "properties": { "OBJECTID": 634, "KC_Fac_FID": 7179, "KCParkFID": 4240801, "SiteName": "Beacon Hill Playground", "SiteType": "Park Site", "Owner": "City of Seattle", "OwnerType": "City", "Manager": "City of Seattle", "ManageType": "City", "Maintd_By": "City of Seattle", "MaintType": "City", "Label_Type": 1 }, "geometry": { "type": "Point", "coordinates": [ -122.31532535617886, 47.58622765414038 ] } },
{ "type": "Feature", "properties": { "OBJECTID": 635, "KC_Fac_FID": 7180, "KCParkFID": 4240802, "SiteName": "Twelfth Avenue South Viewpoint", "SiteType": "Park Site", "Owner": "City of Seattle", "OwnerType": "City", "Manager": "City of Seattle", "ManageType": "City", "Maintd_By": "City of Seattle", "MaintType": "City", "Label_Type": 0 }, "geometry": { "type": "Point", "coordinates": [ -122.317768502113097, 47.577506010459899 ] } },
{ "type": "Feature", "properties": { "OBJECTID": 637, "KC_Fac_FID": 2517, "KCParkFID": 4240901, "SiteName": "Colman Park", "SiteType": "Park Site", "Owner": "City of Seattle", "OwnerType": "City", "Manager": "City of Seattle", "ManageType": "City", "Maintd_By": "City of Seattle", "MaintType": "City", "Label_Type": 0 }, "geometry": { "type": "Point", "coordinates": [ -122.291853745102927, 47.586674136864225 ] } },
{ "type": "Feature", "properties": { "OBJECTID": 639, "KC_Fac_FID": 2516, "KCParkFID": 4240904, "SiteName": "Amy Yee Tennis Center", "SiteType": "Park Site", "Owner": "City of Seattle", "OwnerType": "City", "Manager": "City of Seattle", "ManageType": "City", "Maintd_By": "City of Seattle", "MaintType": "City", "Label_Type": 0 }, "geometry": { "type": "Point", "coordinates": [ -122.298643806713315, 47.584068776327868 ] } },
{ "type": "Feature", "properties": { "OBJECTID": 641, "KC_Fac_FID": 2789, "KCParkFID": 4240906, "SiteName": "Martin Luther King Memorial Park", "SiteType": "Park Site", "Owner": "City of Seattle", "OwnerType": "City", "Manager": "City of Seattle", "ManageType": "City", "Maintd_By": "City of Seattle", "MaintType": "City", "Label_Type": 0 }, "geometry": { "type": "Point", "coordinates": [ -122.298320902573607, 47.583242966646971 ] } },
{ "type": "Feature", "properties": { "OBJECTID": 643, "KC_Fac_FID": 6943, "KCParkFID": 4240907, "SiteName": "Colman Playground", "SiteType": "Park Site", "Owner": "City of Seattle", "OwnerType": "City", "Manager": "City of Seattle", "ManageType": "City", "Maintd_By": "City of Seattle", "MaintType": "City", "Label_Type": 1 }, "geometry": { "type": "Point", "coordinates": [ -122.301958776339077, 47.587625358297117 ] } },
{ "type": "Feature", "properties": { "OBJECTID": 644, "KC_Fac_FID": 6944, "KCParkFID": 4240908, "SiteName": "Jimi Hendrix Park", "SiteType": "Park Site", "Owner": "City of Seattle", "OwnerType": "City", "Manager": "City of Seattle", "ManageType": "City", "Maintd_By": "City of Seattle", "MaintType": "City", "Label_Type": 1 }, "geometry": { "type": "Point", "coordinates": [ -122.300840330492434, 47.588907310620144 ] } },
{ "type": "Feature", "properties": { "OBJECTID": 645, "KC_Fac_FID": 6945, "KCParkFID": 4240909, "SiteName": "Blue Dog Pond", "SiteType": "Park Site", "Owner": "City of Seattle", "OwnerType": "City", "Manager": "City of Seattle", "ManageType": "City", "Maintd_By": "City of Seattle", "MaintType": "City", "Label_Type": 1 }, "geometry": { "type": "Point", "coordinates": [ -122.298487464469417, 47.588999285979362 ] } },
{ "type": "Feature", "properties": { "OBJECTID": 646, "KC_Fac_FID": 6961, "KCParkFID": 4240910, "SiteName": "Atlantic Street Park", "SiteType": "Park Site", "Owner": "City of Seattle", "OwnerType": "City", "Manager": "City of Seattle", "ManageType": "City", "Maintd_By": "City of Seattle", "MaintType": "City", "Label_Type": 1 }, "geometry": { "type": "Point", "coordinates": [ -122.305463594046515, 47.589404524065927 ] } },
{ "type": "Feature", "properties": { "OBJECTID": 647, "KC_Fac_FID": 7055, "KCParkFID": 4240911, "SiteName": "Bradner Gardens Park", "SiteType": "Park Site", "Owner": "City of Seattle", "OwnerType": "City", "Manager": "City of Seattle", "ManageType": "City", "Maintd_By": "City of Seattle", "MaintType": "City", "Label_Type": 1 }, "geometry": { "type": "Point", "coordinates": [ -122.295424299361073, 47.587417989072499 ] } },
{ "type": "Feature", "properties": { "OBJECTID": 648, "KC_Fac_FID": 7056, "KCParkFID": 4240912, "SiteName": "College Street Park", "SiteType": "Park Site", "Owner": "City of Seattle", "OwnerType": "City", "Manager": "City of Seattle", "ManageType": "City", "Maintd_By": "City of Seattle", "MaintType": "City", "Label_Type": 1 }, "geometry": { "type": "Point", "coordinates": [ -122.294617441294548, 47.582696610392865 ] } },
{ "type": "Feature", "properties": { "OBJECTID": 649, "KC_Fac_FID": 7177, "KCParkFID": 4240913, "SiteName": "McClellan Place", "SiteType": "Park Site", "Owner": "City of Seattle", "OwnerType": "City", "Manager": "City of Seattle", "ManageType": "City", "Maintd_By": "City of Seattle", "MaintType": "City", "Label_Type": 1 }, "geometry": { "type": "Point", "coordinates": [ -122.311950024439739, 47.578769200236493 ] } },
{ "type": "Feature", "properties": { "OBJECTID": 650, "KC_Fac_FID": 7178, "KCParkFID": 4240914, "SiteName": "Stevens Place", "SiteType": "Park Site", "Owner": "City of Seattle", "OwnerType": "City", "Manager": "City of Seattle", "ManageType": "City", "Maintd_By": "City of Seattle", "MaintType": "City", "Label_Type": 1 }, "geometry": { "type": "Point", "coordinates": [ -122.31056265799117, 47.577123106452085 ] } },
{ "type": "Feature", "properties": { "OBJECTID": 651, "KC_Fac_FID": 7057, "KCParkFID": 4241001, "SiteName": "Mount Claire Park", "SiteType": "Park Site", "Owner": "City of Seattle", "OwnerType": "City", "Manager": "City of Seattle", "ManageType": "City", "Maintd_By": "City of Seattle", "MaintType": "City", "Label_Type": 0 }, "geometry": { "type": "Point", "coordinates": [ -122.286377967190234, 47.581434150690043 ] } },
{ "type": "Feature", "properties": { "OBJECTID": 653, "KC_Fac_FID": 7173, "KCParkFID": 4241002, "SiteName": "Lakewood Triangle", "SiteType": "Park Site", "Owner": "City of Seattle", "OwnerType": "City", "Manager": "City of Seattle", "ManageType": "City", "Maintd_By": "City of Seattle", "MaintType": "City", "Label_Type": 1 }, "geometry": { "type": "Point", "coordinates": [ -122.283718754074371, 47.576058232065336 ] } },
{ "type": "Feature", "properties": { "OBJECTID": 654, "KC_Fac_FID": 7174, "KCParkFID": 4241003, "SiteName": "Mount Baker Boulevard", "SiteType": "Park Site", "Owner": "City of Seattle", "OwnerType": "City", "Manager": "City of Seattle", "ManageType": "City", "Maintd_By": "City of Seattle", "MaintType": "City", "Label_Type": 0 }, "geometry": { "type": "Point", "coordinates": [ -122.291916516906966, 47.576327748565646 ] } },
{ "type": "Feature", "properties": { "OBJECTID": 665, "KC_Fac_FID": 2552, "KCParkFID": 4241501, "SiteName": "Genesee Park and Playfield", "SiteType": "Park Site", "Owner": "City of Seattle", "OwnerType": "City", "Manager": "City of Seattle", "ManageType": "City", "Maintd_By": "City of Seattle", "MaintType": "City", "Label_Type": 0 }, "geometry": { "type": "Point", "coordinates": [ -122.278129549147025, 47.562864663209034 ] } },
{ "type": "Feature", "properties": { "OBJECTID": 667, "KC_Fac_FID": 2371, "KCParkFID": 4241502, "SiteName": "Mount Baker Park", "SiteType": "Park Site", "Owner": "City of Seattle", "OwnerType": "City", "Manager": "City of Seattle", "ManageType": "City", "Maintd_By": "City of Seattle", "MaintType": "City", "Label_Type": 0 }, "geometry": { "type": "Point", "coordinates": [ -122.288471669922842, 47.584540583424904 ] } },
{ "type": "Feature", "properties": { "OBJECTID": 669, "KC_Fac_FID": 7066, "KCParkFID": 4241503, "SiteName": "Stan Sayres Memorial Park", "SiteType": "Park Site", "Owner": "City of Seattle", "OwnerType": "City", "Manager": "City of Seattle", "ManageType": "City", "Maintd_By": "City of Seattle", "MaintType": "City", "Label_Type": 0 }, "geometry": { "type": "Point", "coordinates": [ -122.280214687158789, 47.57173250884582 ] } },
{ "type": "Feature", "properties": { "OBJECTID": 671, "KC_Fac_FID": 7198, "KCParkFID": 4241504, "SiteName": "Rainier Playfield", "SiteType": "Park Site", "Owner": "City of Seattle", "OwnerType": "City", "Manager": "City of Seattle", "ManageType": "City", "Maintd_By": "City of Seattle", "MaintType": "City", "Label_Type": 1 }, "geometry": { "type": "Point", "coordinates": [ -122.286199326315781, 47.561818635731754 ] } },
{ "type": "Feature", "properties": { "OBJECTID": 672, "KC_Fac_FID": 7199, "KCParkFID": 4241505, "SiteName": "Landing Parkway", "SiteType": "Park Site", "Owner": "City of Seattle", "OwnerType": "City", "Manager": "City of Seattle", "ManageType": "City", "Maintd_By": "City of Seattle", "MaintType": "City", "Label_Type": 1 }, "geometry": { "type": "Point", "coordinates": [ -122.281918229091204, 47.573327009731372 ] } },
{ "type": "Feature", "properties": { "OBJECTID": 673, "KC_Fac_FID": 7200, "KCParkFID": 4241506, "SiteName": "Sierra Place", "SiteType": "Park Site", "Owner": "City of Seattle", "OwnerType": "City", "Manager": "City of Seattle", "ManageType": "City", "Maintd_By": "City of Seattle", "MaintType": "City", "Label_Type": 1 }, "geometry": { "type": "Point", "coordinates": [ -122.282491089485944, 47.573282460519493 ] } },
{ "type": "Feature", "properties": { "OBJECTID": 674, "KC_Fac_FID": 7201, "KCParkFID": 4241507, "SiteName": "York Playground", "SiteType": "Park Site", "Owner": "City of Seattle", "OwnerType": "City", "Manager": "City of Seattle", "ManageType": "City", "Maintd_By": "City of Seattle", "MaintType": "City", "Label_Type": 0 }, "geometry": { "type": "Point", "coordinates": [ -122.290444118520369, 47.572691723949518 ] } },
{ "type": "Feature", "properties": { "OBJECTID": 676, "KC_Fac_FID": 7202, "KCParkFID": 4241508, "SiteName": "Horton Hil Corridor", "SiteType": "Park Site", "Owner": "City of Seattle", "OwnerType": "City", "Manager": "City of Seattle", "ManageType": "City", "Maintd_By": "City of Seattle", "MaintType": "City", "Label_Type": 1 }, "geometry": { "type": "Point", "coordinates": [ -122.287199343594366, 47.573753705853044 ] } },
{ "type": "Feature", "properties": { "OBJECTID": 677, "KC_Fac_FID": 7203, "KCParkFID": 4241509, "SiteName": "Hunter Boulevard", "SiteType": "Park Site", "Owner": "City of Seattle", "OwnerType": "City", "Manager": "City of Seattle", "ManageType": "City", "Maintd_By": "City of Seattle", "MaintType": "City", "Label_Type": 1 }, "geometry": { "type": "Point", "coordinates": [ -122.284971524684721, 47.573419910829593 ] } },
{ "type": "Feature", "properties": { "OBJECTID": 678, "KC_Fac_FID": 2296, "KCParkFID": 4241601, "SiteName": "Jefferson Park Golf Course", "SiteType": "Park Site", "Owner": "City of Seattle", "OwnerType": "City", "Manager": "City of Seattle", "ManageType": "City", "Maintd_By": "City of Seattle", "MaintType": "City", "Label_Type": 0 }, "geometry": { "type": "Point", "coordinates": [ -122.309548471112066, 47.56602633498926 ] } },
{ "type": "Feature", "properties": { "OBJECTID": 680, "KC_Fac_FID": 7064, "KCParkFID": 4241602, "SiteName": "Jefferson Park", "SiteType": "Park Site", "Owner": "City of Seattle", "OwnerType": "City", "Manager": "City of Seattle", "ManageType": "City", "Maintd_By": "City of Seattle", "MaintType": "City", "Label_Type": 1 }, "geometry": { "type": "Point", "coordinates": [ -122.310752375385718, 47.569552038818159 ] } },
{ "type": "Feature", "properties": { "OBJECTID": 681, "KC_Fac_FID": 7065, "KCParkFID": 4241603, "SiteName": "York Park", "SiteType": "Park Site", "Owner": "City of Seattle", "OwnerType": "City", "Manager": "City of Seattle", "ManageType": "City", "Maintd_By": "City of Seattle", "MaintType": "City", "Label_Type": 1 }, "geometry": { "type": "Point", "coordinates": [ -122.295537586575023, 47.570461237162576 ] } },
{ "type": "Feature", "properties": { "OBJECTID": 682, "KC_Fac_FID": 7175, "KCParkFID": 4241604, "SiteName": "Cheasty GS: Cheasty Blvd", "SiteType": "Park Site", "Owner": "City of Seattle", "OwnerType": "City", "Manager": "City of Seattle", "ManageType": "City", "Maintd_By": "City of Seattle", "MaintType": "City", "Label_Type": 0 }, "geometry": { "type": "Point", "coordinates": [ -122.299850554617663, 47.571365613932223 ] } },
{ "type": "Feature", "properties": { "OBJECTID": 684, "KC_Fac_FID": 7176, "KCParkFID": 4241605, "SiteName": "Cheasty Boulevard", "SiteType": "Park Site", "Owner": "City of Seattle", "OwnerType": "City", "Manager": "City of Seattle", "ManageType": "City", "Maintd_By": "City of Seattle", "MaintType": "City", "Label_Type": 1 }, "geometry": { "type": "Point", "coordinates": [ -122.300714883551365, 47.564458149726924 ] } },
{ "type": "Feature", "properties": { "OBJECTID": 685, "KC_Fac_FID": 7204, "KCParkFID": 4241606, "SiteName": "Lake People Park (Xacuabs)", "SiteType": "Park Site", "Owner": "City of Seattle", "OwnerType": "City", "Manager": "City of Seattle", "ManageType": "City", "Maintd_By": "City of Seattle", "MaintType": "City", "Label_Type": 1 }, "geometry": { "type": "Point", "coordinates": [ -122.292013560436828, 47.569133868790807 ] } },
{ "type": "Feature", "properties": { "OBJECTID": 689, "KC_Fac_FID": 7063, "KCParkFID": 4241902, "SiteName": "Herrings House Park (Tualtwx)", "SiteType": "Park Site", "Owner": "City of Seattle", "OwnerType": "City", "Manager": "City of Seattle", "ManageType": "City", "Maintd_By": "City of Seattle", "MaintType": "City", "Label_Type": 1 }, "geometry": { "type": "Point", "coordinates": [ -122.34954358389686, 47.561517538096084 ] } },
{ "type": "Feature", "properties": { "OBJECTID": 692, "KC_Fac_FID": 2295, "KCParkFID": 4242001, "SiteName": "Maplewood Playfield", "SiteType": "Park Site", "Owner": "City of Seattle", "OwnerType": "City", "Manager": "City of Seattle", "ManageType": "City", "Maintd_By": "City of Seattle", "MaintType": "City", "Label_Type": 1 }, "geometry": { "type": "Point", "coordinates": [ -122.31884300286589, 47.560076040599924 ] } },
{ "type": "Feature", "properties": { "OBJECTID": 693, "KC_Fac_FID": 2294, "KCParkFID": 4242002, "SiteName": "Georgetown Playfield", "SiteType": "Park Site", "Owner": "City of Seattle", "OwnerType": "City", "Manager": "City of Seattle", "ManageType": "City", "Maintd_By": "City of Seattle", "MaintType": "City", "Label_Type": 1 }, "geometry": { "type": "Point", "coordinates": [ -122.321400088111304, 47.551606106065286 ] } },
{ "type": "Feature", "properties": { "OBJECTID": 694, "KC_Fac_FID": 2293, "KCParkFID": 4242003, "SiteName": "Cleveland Playfield", "SiteType": "Park Site", "Owner": "City of Seattle", "OwnerType": "City", "Manager": "City of Seattle", "ManageType": "City", "Maintd_By": "City of Seattle", "MaintType": "City", "Label_Type": 1 }, "geometry": { "type": "Point", "coordinates": [ -122.315545545479551, 47.552344135824725 ] } },
{ "type": "Feature", "properties": { "OBJECTID": 695, "KC_Fac_FID": 7068, "KCParkFID": 4242101, "SiteName": "Dearborn Park", "SiteType": "Park Site", "Owner": "City of Seattle", "OwnerType": "City", "Manager": "City of Seattle", "ManageType": "City", "Maintd_By": "City of Seattle", "MaintType": "City", "Label_Type": 0 }, "geometry": { "type": "Point", "coordinates": [ -122.298287719327831, 47.554262085613253 ] } },
{ "type": "Feature", "properties": { "OBJECTID": 697, "KC_Fac_FID": 7068, "KCParkFID": 4242101, "SiteName": "Dearborn Park", "SiteType": "Park Site", "Owner": "City of Seattle", "OwnerType": "City", "Manager": "City of Seattle", "ManageType": "City", "Maintd_By": "City of Seattle", "MaintType": "City", "Label_Type": 2 }, "geometry": { "type": "Point", "coordinates": [ -122.298275328731464, 47.555281412265884 ] } },
{ "type": "Feature", "properties": { "OBJECTID": 698, "KC_Fac_FID": 7197, "KCParkFID": 4242102, "SiteName": "Maple School Ravine", "SiteType": "Park Site", "Owner": "City of Seattle", "OwnerType": "City", "Manager": "City of Seattle", "ManageType": "City", "Maintd_By": "City of Seattle", "MaintType": "City", "Label_Type": 0 }, "geometry": { "type": "Point", "coordinates": [ -122.307107055097674, 47.547485511478598 ] } },
{ "type": "Feature", "properties": { "OBJECTID": 700, "KC_Fac_FID": 2292, "KCParkFID": 4242201, "SiteName": "Lakewood Playground", "SiteType": "Park Site", "Owner": "City of Seattle", "OwnerType": "City", "Manager": "City of Seattle", "ManageType": "City", "Maintd_By": "City of Seattle", "MaintType": "City", "Label_Type": 1 }, "geometry": { "type": "Point", "coordinates": [ -122.270061087090696, 47.558829670669155 ] } },
{ "type": "Feature", "properties": { "OBJECTID": 701, "KC_Fac_FID": 2291, "KCParkFID": 4242203, "SiteName": "Brighton Playfield", "SiteType": "Park Site", "Owner": "City of Seattle", "OwnerType": "City", "Manager": "City of Seattle", "ManageType": "City", "Maintd_By": "City of Seattle", "MaintType": "City", "Label_Type": 1 }, "geometry": { "type": "Point", "coordinates": [ -122.282097047823228, 47.548219176337156 ] } },
{ "type": "Feature", "properties": { "OBJECTID": 702, "KC_Fac_FID": 7067, "KCParkFID": 4242205, "SiteName": "Columbia Park", "SiteType": "Park Site", "Owner": "City of Seattle", "OwnerType": "City", "Manager": "City of Seattle", "ManageType": "City", "Maintd_By": "City of Seattle", "MaintType": "City", "Label_Type": 1 }, "geometry": { "type": "Point", "coordinates": [ -122.28723420198456, 47.560152931236395 ] } },
{ "type": "Feature", "properties": { "OBJECTID": 703, "KC_Fac_FID": 7205, "KCParkFID": 4242206, "SiteName": "Hitts Hill Park", "SiteType": "Park Site", "Owner": "City of Seattle", "OwnerType": "City", "Manager": "City of Seattle", "ManageType": "City", "Maintd_By": "City of Seattle", "MaintType": "City", "Label_Type": 1 }, "geometry": { "type": "Point", "coordinates": [ -122.284209364397526, 47.554300413664585 ] } },
{ "type": "Feature", "properties": { "OBJECTID": 704, "KC_Fac_FID": 2290, "KCParkFID": 4242301, "SiteName": "Seward Park", "SiteType": "Park Site", "Owner": "City of Seattle", "OwnerType": "City", "Manager": "City of Seattle", "ManageType": "City", "Maintd_By": "City of Seattle", "MaintType": "City", "Label_Type": 1 }, "geometry": { "type": "Point", "coordinates": [ -122.251994552944055, 47.554819048152474 ] } },
{ "type": "Feature", "properties": { "OBJECTID": 707, "KC_Fac_FID": 7238, "KCParkFID": 4242601, "SiteName": "Martha Washington Park", "SiteType": "Park Site", "Owner": "City of Seattle", "OwnerType": "City", "Manager": "City of Seattle", "ManageType": "City", "Maintd_By": "City of Seattle", "MaintType": "City", "Label_Type": 1 }, "geometry": { "type": "Point", "coordinates": [ -122.260054302454606, 47.542397993105645 ] } },
{ "type": "Feature", "properties": { "OBJECTID": 708, "KC_Fac_FID": 7234, "KCParkFID": 4242701, "SiteName": "John C. Little Sr. Park", "SiteType": "Park Site", "Owner": "City of Seattle", "OwnerType": "City", "Manager": "City of Seattle", "ManageType": "City", "Maintd_By": "City of Seattle", "MaintType": "City", "Label_Type": 1 }, "geometry": { "type": "Point", "coordinates": [ -122.286448064754794, 47.53866019047144 ] } },
{ "type": "Feature", "properties": { "OBJECTID": 709, "KC_Fac_FID": 7242, "KCParkFID": 4242702, "SiteName": "Othello Playground", "SiteType": "Park Site", "Owner": "City of Seattle", "OwnerType": "City", "Manager": "City of Seattle", "ManageType": "City", "Maintd_By": "City of Seattle", "MaintType": "City", "Label_Type": 1 }, "geometry": { "type": "Point", "coordinates": [ -122.278106448468662, 47.536214346441945 ] } },
{ "type": "Feature", "properties": { "OBJECTID": 710, "KC_Fac_FID": 2276, "KCParkFID": 4242801, "SiteName": "Van Asselt Playfield", "SiteType": "Park Site", "Owner": "City of Seattle", "OwnerType": "City", "Manager": "City of Seattle", "ManageType": "City", "Maintd_By": "City of Seattle", "MaintType": "City", "Label_Type": 1 }, "geometry": { "type": "Point", "coordinates": [ -122.294065154013012, 47.539447168127474 ] } },
{ "type": "Feature", "properties": { "OBJECTID": 711, "KC_Fac_FID": 7243, "KCParkFID": 4242901, "SiteName": "Oxbow Park", "SiteType": "Park Site", "Owner": "City of Seattle", "OwnerType": "City", "Manager": "City of Seattle", "ManageType": "City", "Maintd_By": "City of Seattle", "MaintType": "City", "Label_Type": 1 }, "geometry": { "type": "Point", "coordinates": [ -122.321582152123909, 47.544989187566621 ] } },
{ "type": "Feature", "properties": { "OBJECTID": 714, "KC_Fac_FID": 7859, "KCParkFID": 4242904, "SiteName": "Gateway Park North", "SiteType": "Park Site", "Owner": "City of Seattle", "OwnerType": "City", "Manager": "City of Seattle", "ManageType": "City", "Maintd_By": "City of Seattle", "MaintType": "City", "Label_Type": 0 }, "geometry": { "type": "Point", "coordinates": [ -122.322880773357653, 47.53550309821658 ] } },
{ "type": "Feature", "properties": { "OBJECTID": 716, "KC_Fac_FID": 2286, "KCParkFID": 4243001, "SiteName": "Riverview Playfield", "SiteType": "Park Site", "Owner": "City of Seattle", "OwnerType": "City", "Manager": "City of Seattle", "ManageType": "City", "Maintd_By": "City of Seattle", "MaintType": "City", "Label_Type": 0 }, "geometry": { "type": "Point", "coordinates": [ -122.349067298736543, 47.537196077739075 ] } },
{ "type": "Feature", "properties": { "OBJECTID": 719, "KC_Fac_FID": 8232, "KCParkFID": 4243003, "SiteName": "West Duwamish GS: Riverview", "SiteType": "Park Site", "Owner": "City of Seattle", "OwnerType": "City", "Manager": "City of Seattle", "ManageType": "City", "Maintd_By": "City of Seattle", "MaintType": "City", "Label_Type": 0 }, "geometry": { "type": "Point", "coordinates": [ -122.345583894007135, 47.541439435819179 ] } },
{ "type": "Feature", "properties": { "OBJECTID": 721, "KC_Fac_FID": 8233, "KCParkFID": 4243004, "SiteName": "West Duwamish GS: Othello Street", "SiteType": "Park Site", "Owner": "City of Seattle", "OwnerType": "City", "Manager": "City of Seattle", "ManageType": "City", "Maintd_By": "City of Seattle", "MaintType": "City", "Label_Type": 0 }, "geometry": { "type": "Point", "coordinates": [ -122.34154581172028, 47.535457775504447 ] } },
{ "type": "Feature", "properties": { "OBJECTID": 723, "KC_Fac_FID": 2297, "KCParkFID": 4243101, "SiteName": "Westcrest Park", "SiteType": "Park Site", "Owner": "City of Seattle", "OwnerType": "City", "Manager": "City of Seattle", "ManageType": "City", "Maintd_By": "City of Seattle", "MaintType": "City", "Label_Type": 0 }, "geometry": { "type": "Point", "coordinates": [ -122.338778734146089, 47.528905588131693 ] } },
{ "type": "Feature", "properties": { "OBJECTID": 725, "KC_Fac_FID": 2801, "KCParkFID": 4243102, "SiteName": "Highland Park Playground - Seattle", "SiteType": "Park Site", "Owner": "City of Seattle", "OwnerType": "City", "Manager": "City of Seattle", "ManageType": "City", "Maintd_By": "City of Seattle", "MaintType": "City", "Label_Type": 1 }, "geometry": { "type": "Point", "coordinates": [ -122.349032555695842, 47.527378473351014 ] } },
{ "type": "Feature", "properties": { "OBJECTID": 727, "KC_Fac_FID": 2799, "KCParkFID": 4243203, "SiteName": "South Park Playground", "SiteType": "Park Site", "Owner": "City of Seattle", "OwnerType": "City", "Manager": "City of Seattle", "ManageType": "City", "Maintd_By": "City of Seattle", "MaintType": "City", "Label_Type": 1 }, "geometry": { "type": "Point", "coordinates": [ -122.324159978402491, 47.528016893268365 ] } },
{ "type": "Feature", "properties": { "OBJECTID": 729, "KC_Fac_FID": 7213, "KCParkFID": 4243205, "SiteName": "Cesar Chavez Park", "SiteType": "Park Site", "Owner": "City of Seattle", "OwnerType": "City", "Manager": "City of Seattle", "ManageType": "City", "Maintd_By": "City of Seattle", "MaintType": "City", "Label_Type": 1 }, "geometry": { "type": "Point", "coordinates": [ -122.325315778816091, 47.526683464750825 ] } },
{ "type": "Feature", "properties": { "OBJECTID": 730, "KC_Fac_FID": 7214, "KCParkFID": 4243206, "SiteName": "South Park Meadow", "SiteType": "Park Site", "Owner": "City of Seattle", "OwnerType": "City", "Manager": "City of Seattle", "ManageType": "City", "Maintd_By": "City of Seattle", "MaintType": "City", "Label_Type": 1 }, "geometry": { "type": "Point", "coordinates": [ -122.323652339043477, 47.520794145445763 ] } },
{ "type": "Feature", "properties": { "OBJECTID": 731, "KC_Fac_FID": 2283, "KCParkFID": 4243401, "SiteName": "Rainier Beach Playfield", "SiteType": "Park Site", "Owner": "City of Seattle", "OwnerType": "City", "Manager": "City of Seattle", "ManageType": "City", "Maintd_By": "City of Seattle", "MaintType": "City", "Label_Type": 1 }, "geometry": { "type": "Point", "coordinates": [ -122.273135287528689, 47.525041015208529 ] } },
{ "type": "Feature", "properties": { "OBJECTID": 732, "KC_Fac_FID": 7075, "KCParkFID": 4243403, "SiteName": "Benefit Playground", "SiteType": "Park Site", "Owner": "City of Seattle", "OwnerType": "City", "Manager": "City of Seattle", "ManageType": "City", "Maintd_By": "City of Seattle", "MaintType": "City", "Label_Type": 0 }, "geometry": { "type": "Point", "coordinates": [ -122.284526896860754, 47.51899815336823 ] } },
{ "type": "Feature", "properties": { "OBJECTID": 734, "KC_Fac_FID": 2282, "KCParkFID": 4243501, "SiteName": "Rainier Beach Urban Farm and Wetlands", "SiteType": "Park Site", "Owner": "City of Seattle", "OwnerType": "City", "Manager": "City of Seattle", "ManageType": "City", "Maintd_By": "City of Seattle", "MaintType": "City", "Label_Type": 0 }, "geometry": { "type": "Point", "coordinates": [ -122.262868630634088, 47.525509345125435 ] } },
{ "type": "Feature", "properties": { "OBJECTID": 736, "KC_Fac_FID": 4973, "KCParkFID": 4243502, "SiteName": "Pritchard Island Beach", "SiteType": "Park Site", "Owner": "City of Seattle", "OwnerType": "City", "Manager": "City of Seattle", "ManageType": "City", "Maintd_By": "City of Seattle", "MaintType": "City", "Label_Type": 0 }, "geometry": { "type": "Point", "coordinates": [ -122.262568526474908, 47.529883922423195 ] } },
{ "type": "Feature", "properties": { "OBJECTID": 738, "KC_Fac_FID": 4974, "KCParkFID": 4243503, "SiteName": "Beer Sheva Park", "SiteType": "Park Site", "Owner": "City of Seattle", "OwnerType": "City", "Manager": "City of Seattle", "ManageType": "City", "Maintd_By": "City of Seattle", "MaintType": "City", "Label_Type": 1 }, "geometry": { "type": "Point", "coordinates": [ -122.262987650841339, 47.52392605032037 ] } },
{ "type": "Feature", "properties": { "OBJECTID": 739, "KC_Fac_FID": 7076, "KCParkFID": 4243504, "SiteName": "Atlantic City Boat Ramp", "SiteType": "Park Site", "Owner": "City of Seattle", "OwnerType": "City", "Manager": "City of Seattle", "ManageType": "City", "Maintd_By": "City of Seattle", "MaintType": "City", "Label_Type": 1 }, "geometry": { "type": "Point", "coordinates": [ -122.262835672082872, 47.522923010844323 ] } },
{ "type": "Feature", "properties": { "OBJECTID": 740, "KC_Fac_FID": 7077, "KCParkFID": 4243505, "SiteName": "Chinook Beach Park", "SiteType": "Park Site", "Owner": "City of Seattle", "OwnerType": "City", "Manager": "City of Seattle", "ManageType": "City", "Maintd_By": "City of Seattle", "MaintType": "City", "Label_Type": 1 }, "geometry": { "type": "Point", "coordinates": [ -122.258422958559024, 47.520151867211851 ] } },
{ "type": "Feature", "properties": { "OBJECTID": 741, "KC_Fac_FID": 7215, "KCParkFID": 4243506, "SiteName": "Sturtevant Ravine", "SiteType": "Park Site", "Owner": "City of Seattle", "OwnerType": "City", "Manager": "City of Seattle", "ManageType": "City", "Maintd_By": "City of Seattle", "MaintType": "City", "Label_Type": 0 }, "geometry": { "type": "Point", "coordinates": [ -122.267780673542319, 47.516611307056735 ] } },